group,WQSC,location,river,state,Latitude,Longitude,Colour,ColourFill
"Class C",1001,"BEAS AT U/S MANALI, H.P.",BEAS,"HIMACHAL PRADESH","32.237794","77.190564",blue,"#00f"
"Class C",1002,"BEAS AT D/S KULU, H.P.",BEAS,"HIMACHAL PRADESH","31.963639","77.116392",blue,"#00f"
"NOT Class C",1003,"BEAS AT D/S AUT, H.P.",BEAS,"HIMACHAL PRADESH","31.740194","77.207533",red,"#f03"
"NOT Class C",1004,"BEAS AT U/S PANDON DAM, H.P.",BEAS,"HIMACHAL PRADESH","31.669367","77.064236",red,"#f03"
"Class C",1005,"BEAS AT EXIT OF TUNNEL DEHAL POWER HOUSE, H.P.",BEAS,"HIMACHAL PRADESH","31.422647","76.812947",blue,"#00f"
"Class C",1006,"BEAS AT D/S MANDI, H.P.",BEAS,"HIMACHAL PRADESH","31.712408","76.933089",blue,"#00f"
"NOT Class C",1007,"BEAS AT D/S ALAMPUR, H.P.",BEAS,"HIMACHAL PRADESH","31.83865","76.505144",red,"#f03"
"NOT Class C",1008,"BEAS AT D/S DEHRAGOPIPUR, H.P.",BEAS,"HIMACHAL PRADESH","31.878094","76.203311",red,"#f03"
"NOT Class C",1009,"BEAS AT D/S PONG DAM, H.P.",BEAS,"HIMACHAL PRADESH","31.935022","76.053444",red,"#f03"
"Class C",1010,"BEAS AT MIRTHAL BRIDGE, GURDASPUR, PUNJAB",BEAS,PUNJAB,"32.097933","75.611474",blue,"#00f"
"Class C",1011,"BEAS AT G.T.ROAD UNDER BDG. NEAR KAPURTHALA, PUNJAB",BEAS,PUNJAB,"31.51012","75.304936",blue,"#00f"
"Class C",1012,"BEAS AT 100M D/S INDUST. DISCH. GOINDWAL PUNJAB",BEAS,PUNJAB,"31.374996","75.162691",blue,"#00f"
"Class C",1013,"SATLUJ AT U/S TATAPANI, H.P.",SATLUJ,"HIMACHAL PRADESH","31.247458","77.088208",blue,"#00f"
"Class C",1014,"SATLUJ AT U/S SLAPPER, H.P.",SATLUJ,"HIMACHAL PRADESH","31.421014","76.837836",blue,"#00f"
"Class C",1015,"SATLUJ AT D/S SLAPPER, H.P.",SATLUJ,"HIMACHAL PRADESH","31.412833","76.874881",blue,"#00f"
"NOT Class C",1016,"SATLUJ AT D/S BHAKHRA, H.P.",SATLUJ,"HIMACHAL PRADESH","31.425772","76.421883",red,"#f03"
"NOT Class C",1017,"SATLUJ AT 100M U/S OF HEADWORKS, NANGAL, PUNJAB",SATLUJ,PUNJAB,"31.380831","76.367228",red,"#f03"
"NOT Class C",1020,"SATLUJ AT 100M D/S BUDHA NALA CONFL., LUDHIANA, PUNJAB",SATLUJ,PUNJAB,"30.975026","75.608293",red,"#f03"
"NOT Class C",1021,"SATLUJ AT BOAT BDG. DHARMKOTNAKODAR ROAD, JALANDHAR, PUNJAB",SATLUJ,PUNJAB,"30.99775","75.371988",red,"#f03"
"NOT Class C",1022,"SATLUJ AT BRIDGE HARIKE, AMRITSAR, PUNJAB",SATLUJ,PUNJAB,"31.139816","74.936455",red,"#f03"
"NOT Class C",1023,"GHAGGAR AT MUBARAKPUR REST HOUSE (PATIALA), PUNJAB",GHAGGAR,PUNJAB,"30.618897","76.849176",red,"#f03"
"NOT Class C",1024,"GHAGGAR AT 100M D/S CONF. WITH R. SARASWATI (PATIALA),PUNJAB",GHAGGAR,PUNJAB,"29.76562","75.743852",red,"#f03"
"NOT Class C",1025,"GHAGGAR GH-1 AT ROAD BRDG. SIRSA,DEBWALI ROAD,HARYANA","GHAGGAR GH-1",HARYANA,"29.598033","75.020611",red,"#f03"
"NOT Class C",1026,"GHAGGAR GH-2 AT CHANDARPUR SYPHON, HARYANA","GHAGGAR GH-2",HARYANA,"29.766164","75.743274",red,"#f03"
"Class C",1028,"KRISHNA AT TINTINI BRIDGE, KARNATAKA",KRISHNA,KARNATAKA,"16.369172","76.656647",blue,"#00f"
"NOT Class C",1029,"TUNGHABHADRA AT HARALAHALLI BRIDGE, KARNATAKA",TUNGHABHADRA,KARNATAKA,"14.325397","75.771092",red,"#f03"
"NOT Class C",1030,"BRAHAMPUTRA AT DIBRUGARH, ASSAM",BRAHAMPUTRA,ASSAM,"27.510417","94.953333",red,"#f03"
"Class C",1031,"BRAHAMPUTRA AT PANDU, ASSAM",BRAHAMPUTRA,ASSAM,"26.176","91.68375",blue,"#00f"
"NOT Class C",1036,"KOEL AT MANOHARPUR AFTER MEETING KOINA RIVER D/S,JHARKAND",KOEL,JHARKHAND,"22.377636","85.190937",red,"#f03"
"NOT Class C",1038,"BRAHMANI AT D/S PANPOSH, ORISSA",BRAHMANI,ORISSA,"20.697347","85.747603",red,"#f03"
"NOT Class C",1039,"BRAHMANI AT BONAIGARH, ORISSA",BRAHMANI,ORISSA,"21.820606","84.9516",red,"#f03"
"NOT Class C",1040,"BRAHMANI AT RENGALI, ORISSA",BRAHMANI,ORISSA,"21.276098","85.035007",red,"#f03"
"NOT Class C",1041,"BRAHMANI AT SAMAL, ORISSA",BRAHMANI,ORISSA,"21.074527","85.142032",red,"#f03"
"NOT Class C",1042,"BRAHMANI AT KAMALANGA, ORISSA",BRAHMANI,ORISSA,"20.867785","85.278472",red,"#f03"
"NOT Class C",1043,"BRAHMANI AT BHUBAN, ORISSA",BRAHMANI,ORISSA,"20.879162","85.835492",red,"#f03"
"NOT Class C",1044,"BRAHMANI AT DHARMASHALA, ORISSA",BRAHMANI,ORISSA,"20.770422","86.149638",red,"#f03"
"NOT Class C",1045,"BRAHMANI AT PATTAMUNDAI, ORISSA",BRAHMANI,ORISSA,"20.585906","86.568249",red,"#f03"
"NOT Class C",1046,"GANGA AT ALLAHABAD (RASOOLABAD), U.P.",GANGA,"UTTAR PRADESH","25.502474","81.855439",red,"#f03"
"NOT Class C",1049,"GANGA AT ALLAHABAD D/S (SANGAM), U.P.",GANGA,"UTTAR PRADESH","25.419206","81.900522",red,"#f03"
"NOT Class C",1052,"GANGA AT ULUBERIA, WEST BENGAL",GANGA,"WEST BENGAL","22.453473","88.115051",red,"#f03"
"NOT Class C",1053,"GANGA AT DAKSHMINESWAR, WEST BENGAL",GANGA,"WEST BENGAL","22.653061","88.357589",red,"#f03"
"NOT Class C",1054,"GANGA AT PALTA, WEST BENGAL",GANGA,"WEST BENGAL","22.780189","88.3338",red,"#f03"
"Class C",1060,"GANGA AT RISHIKESH U/S, U.P",GANGA,UTTARAKHAND,"30.115135","78.307032",blue,"#00f"
"NOT Class C",1061,"GANGA AT HARIDWAR D/S, U.P",GANGA,UTTARAKHAND,"29.945254","78.164675",red,"#f03"
"NOT Class C",1062,"GANGA AT GARHMUKTESHWAR, U.P",GANGA,"UTTAR PRADESH","28.76062","78.143766",red,"#f03"
"NOT Class C",1063,"GANGA AT KANNAUJ U/S (RAJGHAT), U.P",GANGA,"UTTAR PRADESH","27.138451","79.930775",red,"#f03"
"NOT Class C",1064,"RAMGANGA AT KANNAUJ (BEFORE CONF.),U.P",RAMGANGA,"UTTAR PRADESH","27.190822","79.818261",red,"#f03"
"NOT Class C",1065,"KALINADI AT KANNAUJ (BEFORE CONF.),U.P",KALINADI,"UTTAR PRADESH","27.161314","79.919914",red,"#f03"
"NOT Class C",1066,"GANGA AT KANNAUJ D/S, U.P",GANGA,"UTTAR PRADESH","27.010953","79.986442",red,"#f03"
"NOT Class C",1067,"GANGA AT KANPUR U/S (RANIGHAT), U.P",GANGA,"UTTAR PRADESH","26.505542","80.314344",red,"#f03"
"NOT Class C",1068,"GANGA AT KANPUR D/S (JAJMAU PUMPING STATION), U.P",GANGA,"UTTAR PRADESH","26.436185","80.40961",red,"#f03"
"NOT Class C",1069,"YAMUNA AT ALLAHABAD D/S (BALUA GHAT), U.P",YAMUNA,"UTTAR PRADESH","25.422471","81.838806",red,"#f03"
"NOT Class C",1070,"GANGA AT VARANASI U/S (ASSIGHAT), U.P",GANGA,"UTTAR PRADESH","25.289358","83.006389",red,"#f03"
"NOT Class C",1071,"GANGA AT VARANASI D/S (MALVIYA BRIDGE), U.P",GANGA,"UTTAR PRADESH","25.321486","83.035285",red,"#f03"
"NOT Class C",1072,"GOMTI AT VARANASI, U.P",GOMTI,"UTTAR PRADESH","25.507856","83.158181",red,"#f03"
"NOT Class C",1073,"GANGA AT TRIGHAT (GHAZIPUR), U.P",GANGA,"UTTAR PRADESH","25.578175","83.609594",red,"#f03"
"NOT Class C",1074,"GANGA AT BUXAR,BIHAR",GANGA,BIHAR,"25.573508","83.966669",red,"#f03"
"Class C",1075,"SONE AT KOELWAR, BIHAR",SONE,BIHAR,"25.5753","84.798144",blue,"#00f"
"Class C",1076,"GHAGHARA NEAR CHAPRA, BIHAR",,BIHAR,"25.771153","84.654639",blue,"#00f"
"NOT Class C",1077,"GANGA AT KHURJI, PATNA U/S, BIHAR",GANGA,BIHAR,"25.650869","85.115085",red,"#f03"
"Class C",1078,"GANDAK AT SONEPUR, PATNA (BEFORE CONFL.),BIHAR",GANDAK,BIHAR,"25.675279","85.189845",blue,"#00f"
"NOT Class C",1079,"GANGA AT PATNA D/S (GANGA BRIDGE), BIHAR",GANGA,BIHAR,"25.613753","85.204131",red,"#f03"
"NOT Class C",1080,"GANGA AT BAHARAMPORE WEST BENGAL",GANGA,"WEST BENGAL","24.100312","88.244054",red,"#f03"
"NOT Class C",1081,"BAITARNI AT JODA ORISSA",BAITARNI,ORISSA,"22.018734","85.406998",red,"#f03"
"NOT Class C",1082,"BAITARNI AT ANANDPUR, ORISSA",BAITARNI,ORISSA,"21.214851","86.121323",red,"#f03"
"NOT Class C",1083,"BAITARNI AT JAJPUR ORISSA",BAITARNI,ORISSA,"20.851312","86.33016",red,"#f03"
"NOT Class C",1084,"BAITARNI AT CHANDBALI, ORISSA",BAITARNI,ORISSA,"20.774033","86.744211",red,"#f03"
"NOT Class C",1085,"BAITARNI AT DHAMRA ORISSA",BAITARNI,ORISSA,"20.795283","86.896965",red,"#f03"
"Class C",1086,"SATLUJ AT U/S RAMPUR, H.P.",SATLUJ,"HIMACHAL PRADESH","31.448039","77.628283",blue,"#00f"
"NOT Class C",1087,"SATLUJ AT D/S RAMPUR, H.P.",SATLUJ,"HIMACHAL PRADESH","31.432236","77.622567",red,"#f03"
"NOT Class C",1088,"RAVI AT U/S MADHOPUR, H.P.",RAVI,"HIMACHAL PRADESH","32.492399","76.176291",red,"#f03"
"Class C",1090,"LARGI AT D/S, H.P.",LARGI,"HIMACHAL PRADESH","31.701264","77.169233",blue,"#00f"
"Class C",1091,"BHADRA AT MALLESWARAM D/S OF KIOCL KARNATAKA",BHADRA,KARNATAKA,"13.003125","77.565306",blue,"#00f"
"NOT Class C",1092,"KALU AT ATALE VILLAGE, MAHARASHTRA",KALU,MAHARASHTRA,"19.269435","73.168239",red,"#f03"
"NOT Class C",1094,"ULHAS AT U/S OF BADLAPUR, MAHARASHTRA",ULHAS,MAHARASHTRA,"19.162099","73.238148",red,"#f03"
"NOT Class C",1095,"GODAVARI AT U/S OF GANGAPUR DAM,NASIK,MAHARASHTRA",GODAVARI,MAHARASHTRA,"20.048123","73.679809",red,"#f03"
"NOT Class C",1096,"GODAVARI AT PANCHAVATI AT RAMKUND,MAHARASHTRA",GODAVARI,MAHARASHTRA,"20.008676","73.792361",red,"#f03"
"Class C",1097,"RAVI AT U/S OF MADHOPUR HEADWORKS,GURDASPUR,PUNJAB",RAVI,PUNJAB,"32.372983","75.61039",blue,"#00f"
"NOT Class C",1099,"MAHANADI AT U/S OF RAJIM, CHHATISSGARH.",MAHANADI,CHHATTISGARH,"20.969822","81.876732",red,"#f03"
"NOT Class C",11,"WAINGANGA AT ASHTI, MAHARASHTRA",WAINGANGA,MAHARASHTRA,"19.715385","79.685289",red,"#f03"
"NOT Class C",1100,"MAHANADI AT KHARAD CHHATISSGARH.",MAHANADI,CHHATTISGARH,"21.730837","82.565689",red,"#f03"
"Class C",1105,"HASDEO AT U/S KORBA,CHHATISSGARH",HASDEO,CHHATTISGARH,"22.380472","82.708433",blue,"#00f"
"NOT Class C",1106,"HASDEO AT U/S OF CHAMPA,CHHATISSGARH",HASDEO,CHHATTISGARH,"22.048233","82.634978",red,"#f03"
"Class C",1107,"SEONATH AT U/S RAJNANDGAON, CHAATISSGARH",SEONATH,CHHATTISGARH,"21.038264","80.973647",blue,"#00f"
"NOT Class C",1117,"YAMUNA AT HATHNIKUND HARYANA",YAMUNA,HARYANA,"30.314987","77.583328",red,"#f03"
"NOT Class C",1119,"YAMUNA AT SONEPAT, HARYANA",YAMUNA,HARYANA,"29.002116","77.023752",red,"#f03"
"NOT Class C",1120,"YAMUNA AT WAZIRABAD, DELHI, CPCB",YAMUNA,DELHI,"28.85018","77.210184",red,"#f03"
"NOT Class C",1121,"YAMUNA AT NIZAMUDDIN, DELHI",YAMUNA,DELHI,"28.598582","77.263308",red,"#f03"
"NOT Class C",1123,"YAMUNA AT MATHURA U/S , U.P.",YAMUNA,DELHI,"27.564981","77.708718",red,"#f03"
"NOT Class C",1124,"YAMUNA AT MATHURA D/S , U.P.",YAMUNA,DELHI,"27.443052","77.716133",red,"#f03"
"NOT Class C",1125,"YAMUNA AT AGRA U/S, U.P.",YAMUNA,"UTTAR PRADESH","27.250657","77.861624",red,"#f03"
"NOT Class C",1126,"YAMUNA AT D/S OF AGRA, U.P.",YAMUNA,"UTTAR PRADESH","27.17969","78.119555",red,"#f03"
"NOT Class C",1145,"GANGA AT NARORA (BULANDSAHAR), U.P.",GANGA,"UTTAR PRADESH","28.1897","78.395878",red,"#f03"
"NOT Class C",1146,"GANGA AT BITHOOR (KANPUR), U.P.",GANGA,"UTTAR PRADESH","26.610906","80.275419",red,"#f03"
"NOT Class C",1147,"GANGA AT DALMAU (RAI BAREILLY), U.P.",GANGA,"UTTAR PRADESH","26.074386","81.024075",red,"#f03"
"NOT Class C",1148,"AMBIKA AT BILIMORA, GUJARAT",AMBIKA,GUJARAT,"20.772106","72.951625",red,"#f03"
"NOT Class C",1149,"KOLAK AT PATALIA BDG., GUJARAT",KOLAK,GUJARAT,"20.461511","72.886556",red,"#f03"
"Class C",1150,"DAMANGANGA AT KACHIGAON U\S AT GIDC WIER,GUJARAT",DAMANGANGA,GUJARAT,"20.358825","72.881708",blue,"#00f"
"NOT Class C",1151,"PATALGANGA AT SHILPHATA, MAHARASHTRA",PATALGANGA,MAHARASHTRA,"18.80171","73.322773",red,"#f03"
"NOT Class C",1152,"KUNDALIKA AT ROHA CITY, MAHARASHTRA",KUNDALIKA,MAHARASHTRA,"18.442447","73.116853",red,"#f03"
"NOT Class C",1153,"KRISHNA AT RAJAPUR WEIR, MAHARASHTRA",KRISHNA,MAHARASHTRA,"16.657053","73.521386",red,"#f03"
"NOT Class C",1155,"KARAMANA AT MOONNATTUMUKKU, KERALA",KARAMANA,KERALA,"8.478967","76.970486",red,"#f03"
"Class C",1156,"PAMBA AT CHENGANNUR, KERALA",PAMBA,KERALA,"9.326633","76.622158",blue,"#00f"
"Class C",1157,"MANJERA AT RAIPALLU, A.P.",MANJERA,"ANDHRA PRADESH","17.48468","79.107452",blue,"#00f"
"NOT Class C",1158,"MANER AT SOMNAPALLI, A.P.",MANER,"ANDHRA PRADESH","18.369532","79.626751",red,"#f03"
"NOT Class C",1160,"TAMBIRAPARANI AT CHERANMADEVI,CAUSE WAY,TAMILNADU",TAMBIRAPARANI,TAMILNADU,"8.700586","77.56595",red,"#f03"
"NOT Class C",1161,"TAMBIRAPARANI AT TIRUNELVELI,COLLECTORATE,TAMILNADU.",TAMBIRAPARANI,TAMILNADU,"8.734125","77.716764",red,"#f03"
"NOT Class C",1162,"TAMBIRAPARANI AT MURAPPANADU, TAMILNADU",TAMBIRAPARANI,TAMILNADU,"8.721606","77.832797",red,"#f03"
"NOT Class C",1163,"GHATPRABHA AT W.A. POINT TO GOKAK TOWN,KARNATAKA",GHATPRABHA,KARNATAKA,"16.174961","74.822508",red,"#f03"
"NOT Class C",1164,"MALPRABHA AT WATER ABSTR. PT. TO HUBLI,DHARWAR,KARNATAKA",MALPRABHA,KARNATAKA,"15.797983","75.191492",red,"#f03"
"NOT Class C",1165,"ARKAVATHI AT D/S OF KANAKAPURA TOWN, KARNATAKA",ARKAVATHI,KARNATAKA,"12.535417","77.424792",red,"#f03"
"NOT Class C",1166,"SHIMSHA AT D/S OF BRIDGE, HALAGUR, KARNATAKA",SHIMSHA,KARNATAKA,"12.422764","77.226144",red,"#f03"
"NOT Class C",1167,"BHIMA AT D/S OF BDG. NEAR YADGIR,KARNATAKA",BHIMA,KARNATAKA,"16.7341","77.130744",red,"#f03"
"NOT Class C",1168,"TUNGHA AT D/S OF SHIMOGA TOWN, KARNATAKA",TUNGHA,KARNATAKA,"13.926464","75.583336",red,"#f03"
"NOT Class C",1169,"BHADRA AT D/S OF KIOCL ROAD BRIDGE, NEAR HOLEHUNNUR,KARNATAKA",BHADRA,KARNATAKA,"13.989311","75.683736",red,"#f03"
"Class C",1170,"KRISHNA AT D/S OF DEVASAGAR BDG.,KARNATAKA",KRISHNA,KARNATAKA,"16.380508","77.362725",blue,"#00f"
"NOT Class C",1171,"CAUVERY AT SRI RANGAPATTANNA,D/S OF ROAD BDG.,KARNATAKA",CAUVERY,KARNATAKA,"12.423705","76.693672",red,"#f03"
"NOT Class C",1172,"MUSI U/S AT HYDERABAD, A.P.","MUSI U/S","ANDHRA PRADESH","17.370422","78.472561",red,"#f03"
"NOT Class C",1173,"MUSI D/S AT HYDERABAD, A.P.","MUSI D/S","ANDHRA PRADESH","17.370097","78.469786",red,"#f03"
"Class C",1174,"TUNGHABHADRA AT KURNOOL U/S, BAVAPURAM, A.P.",TUNGHABHADRA,"ANDHRA PRADESH","15.8483","78.034942",blue,"#00f"
"Class C",1175,"KRISHNA AFTER CONFL. WITH TUNGABHADRA, SANGAMESHWARAM A.P.",,"ANDHRA PRADESH","16.001874","78.364986",blue,"#00f"
"Class C",1177,"MUNERU BEFORE CONFL. WITH KRISHNA, NANDIGAMA, A.P.",,"ANDHRA PRADESH","16.670823","80.297751",blue,"#00f"
"Class C",1178,"PALLERU BEFORE CONFL. WITH KRISHNA, JAGGAYYAPET, A.P.",,"ANDHRA PRADESH","16.951698","80.048401",blue,"#00f"
"NOT Class C",1181,"KRISHNA AT D/S OF NARAYANPURA DAM,KARNATAKA",KRISHNA,KARNATAKA,"16.242436","76.370678",red,"#f03"
"Class C",1182,"KRISHNA AT U/S OF UGARKHURD BARRAGE,KARNATAKA",KRISHNA,KARNATAKA,"16.640864","74.821308",blue,"#00f"
"NOT Class C",1183,"BHIMA AT D/S OF ROAD BRIDGE AT GANGAPUR VILLAGE,KARNATAKA",BHIMA,KARNATAKA,"17.179219","76.566603",red,"#f03"
"NOT Class C",1184,"BHIMA AT FEROZABAD VILLAGE (D/S), KARNATAKA",BHIMA,KARNATAKA,"17.069328","76.794283",red,"#f03"
"Class C",1185,"GHATPRABHA AT D/S OF MUDHOL RD. CROSS BDG., KARNATAKA",GHATPRABHA,KARNATAKA,"16.328103","75.268333",blue,"#00f"
"NOT Class C",1186,"MALPRABHA AT D/S OF AIHOLE TOWN, KARNATAKA",MALPRABHA,KARNATAKA,"16.009319","75.878022",red,"#f03"
"Class C",1187,"MALPRABHA AT D/S OF KHANAPUR VILLAGE,KARNATAKA",MALPRABHA,KARNATAKA,"15.633431","74.510322",blue,"#00f"
"NOT Class C",1188,"BHIMA AT NARSINGHPUR,(D/S AF.CONFL.WITH R.NIRA),MAHARASHTRA",BHIMA,MAHARASHTRA,"17.985845","75.116249",red,"#f03"
"NOT Class C",1189,"BHIMA AT PUNE U/S VITHALWADI, MAHARASHTRA",BHIMA,MAHARASHTRA,"18.481871","73.829569",red,"#f03"
"NOT Class C",1190,"BHIMA AT PUNE, D/S OF BUNDGARDEN,MAHARASHTRA",BHIMA,MAHARASHTRA,"18.54325","73.885036",red,"#f03"
"NOT Class C",1192,"BHIMA AFTER CONF. WITH DAUNT, MAHARASHTRA",,MAHARASHTRA,"18.464553","74.583576",red,"#f03"
"NOT Class C",1194,"KRISHNA AT MAHABALESHWAR DHOM DAM NEAR KOINA DAM,MAHARASHTRA",KRISHNA,MAHARASHTRA,"17.981764","73.795456",red,"#f03"
"Class C",1195,"CAUVERY AT KUSHAL NAGAR U/S (NEAR BAICHANAHALLI), KARNATAKA",CAUVERY,KARNATAKA,"12.448489","75.96987",blue,"#00f"
"NOT Class C",1196,"LAKSHMANTIRTHA AT D/S OF HUNSUR TOWN, KARNATAKA",LAKSHMANTIRTHA,KARNATAKA,"12.302189","76.286164",red,"#f03"
"Class C",1197,"KABBANI AT SARAGUR VILLAGE D/S, KARNATAKA",KABBANI,KARNATAKA,"12.019853","76.388075",blue,"#00f"
"Class C",1198,"CAUVERY AT NAPOKULU BDG (D/S), KARNATAKA",CAUVERY,KARNATAKA,"12.314149","75.698522",blue,"#00f"
"Class C",1199,"HEMAVATI AT D/S OF HOLENARASIPURA TOWN AT RAMADEVALA WEIR",HEMAVATI,KARNATAKA,"12.809694","76.205642",blue,"#00f"
"NOT Class C",12,"GODAVARI AT DHALEGAON, MAHARASHTRA",GODAVARI,MAHARASHTRA,"19.226068","76.367013",red,"#f03"
"NOT Class C",1200,"SHIMSHA AT D/S OF HIGHWAY BRIDGE, YEDIYAR, KARNATAKA",SHIMSHA,KARNATAKA,"12.979108","76.851622",red,"#f03"
"NOT Class C",1201,"BHAVANI AT PATHIRAKALIAMMAN KOIL, TAMILNADU",BHAVANI,TAMILNADU,"11.469259","77.296165",red,"#f03"
"Class C",1202,"CAUVERY AT TIRUCHIRAPPALLI U/S, TAMILNADU",CAUVERY,TAMILNADU,"10.833263","78.718224",blue,"#00f"
"NOT Class C",1203,"CAUVERY AT TRICHY,GRAND ANAICUT, TAMILNADU",CAUVERY,TAMILNADU,"10.830327","78.81177",red,"#f03"
"NOT Class C",1204,"BHAVANI AT SIRUMUGAI,TAMILNADU",BHAVANI,TAMILNADU,"11.319948","77.011429",red,"#f03"
"NOT Class C",1205,"BHAVANI AT BHAVANI, TAMILNADU",BHAVANI,TAMILNADU,"11.454094","77.679567",red,"#f03"
"Class C",1206,"CAUVERY AT THANJAVUR, TAMILNADU",CAUVERY,"TAMIL NADU","11.34","79.24",blue,"#00f"
"Class C",1207,"KABBANI AT MUTHANKARA, KERALA",KABBANI,KERALA,"11.697858","76.397006",blue,"#00f"
"Class C",1208,"BHAVANI AT ELACHIVAZHY, KERALA",BHAVANI,KERALA,"11.197053","76.722381",blue,"#00f"
"NOT Class C",1209,"GODAVARI AT RAHER, MAHARASHTRA",GODAVARI,MAHARASHTRA,"18.85443","77.527475",red,"#f03"
"NOT Class C",1211,"GODAVARI AT NASIK D/S, MAHARASHTRA",GODAVARI,MAHARASHTRA,"20.001568","73.795314",red,"#f03"
"NOT Class C",1212,"WARDHA AT RAJURA BRIDGE, MAHARASHTRA",WARDHA,MAHARASHTRA,"19.77611","79.354942",red,"#f03"
"Class C",1213,"WAINGANGA AT BALAGHAT, M.P.",WAINGANGA,"MADHYA PRADESH","21.802913","80.157861",blue,"#00f"
"NOT Class C",1214,"WAINGANGA AT CHINDWARA, M.P.",WAINGANGA,"MADHYA PRADESH","21.804398","80.157483",red,"#f03"
"NOT Class C",1215,"MANER AT WARANGAL U/S, A.P.",MANER,"ANDHRA PRADESH","17.974814","79.898686",red,"#f03"
"Class C",1218,"GODAVARI AT RAJAHMUNDRY U/S, A.P.",GODAVARI,"ANDHRA PRADESH","17.069466","81.711134",blue,"#00f"
"NOT Class C",1221,"SABARMATI AT KHEROJ BRIDGE, GUJARAT",SABARMATI,GUJARAT,"24.22986","73.005317",red,"#f03"
"NOT Class C",1222,"SHEDHI AT KHEDA, GUJARAT",SHEDHI,GUJARAT,"22.739321","72.679059",red,"#f03"
"Class C",1224,"MESHWA NEAR RAJASTHAN BORDER AT SAMLAJI, GUJARAT","MESHWA NEAR RAJASTHAN BORDER",GUJARAT,"23.681975","73.391956",blue,"#00f"
"NOT Class C",1228,"ANAS AT DAHOD, (KUSHALGARH), DIST. PANCHMAHAL, GUJARAT",ANAS,GUJARAT,"22.846264","74.291789",red,"#f03"
"NOT Class C",1229,"MAHI NEAR RAJASTHAN BORDER AT KADANA DAM, GUJARAT","MAHI NEAR RAJASTHAN BORDER",GUJARAT,"23.285842","73.831736",red,"#f03"
"NOT Class C",1230,"MAHI AFTER CONF. WITH ANAS AT PARDI (BANASWADA), GUJARAT.","MAHI AFTER CONF. WITH ANAS",GUJARAT,"23.324822","73.9021",red,"#f03"
"NOT Class C",1231,"MAHI AT VIRPUR, GUJARAT",MAHI,GUJARAT,"23.152072","73.551372",red,"#f03"
"NOT Class C",1232,"MAHI (D/S) CONF WITH R. CHAP (UNDER SAGWARA-SARHI RD. BDG.),RAJASTHAN",,RAJASTHAN,"23.648483","74.126708",red,"#f03"
"NOT Class C",1234,"NARMADA AT HOSHANGABAD U S M.P.",NARMADA,"MADHYA PRADESH","22.756614","77.690036",red,"#f03"
"NOT Class C",1240,"NARMADA AT NARSINGHPUR M.P.",NARMADA,"MADHYA PRADESH","22.948622","79.190171",red,"#f03"
"Class C",1241,"NARMADA AT MANDLA NEAR ROAD BDG. M.P.",NARMADA,"MADHYA PRADESH","22.598638","80.371449",blue,"#00f"
"NOT Class C",1243,"NARMADA AT BHARUCH,ZADESHVAR,GUJARAT",NARMADA,GUJARAT,"21.665906","72.916681",red,"#f03"
"NOT Class C",1244,"NARMADA AT PANETHA, GUJARAT",NARMADA,GUJARAT,"21.950608","73.584697",red,"#f03"
"NOT Class C",1245,"NARMADA AT CHANDOD, GUJARAT",NARMADA,GUJARAT,"21.983722","73.456331",red,"#f03"
"NOT Class C",1246,"DAMANGANGA AT KACHIGAON D\S (DAMAN), GUJARAT",DAMANGANGA,GUJARAT,"20.371433","72.881108",red,"#f03"
"Class C",1247,"TAPI AT MANDAVI, GUJARAT",TAPI,GUJARAT,"21.247908","73.301033",blue,"#00f"
"NOT Class C",1248,"TAPI AT SURAT U/S KATHORE, GUJARAT",TAPI,GUJARAT,"21.2855","72.935483",red,"#f03"
"NOT Class C",1251,"TAPI AT BHUSAWAL US MAHARASHTRA",TAPI,MAHARASHTRA,"21.047772","75.786357",red,"#f03"
"NOT Class C",1252,"GIRNA AT JALGAON, MAHARASHTRA",GIRNA,MAHARASHTRA,"20.674774","75.22279",red,"#f03"
"NOT Class C",1253,"GIRNA AT MALEGAON (MANMAD), MAHARASHTRA",GIRNA,MAHARASHTRA,"20.559014","74.508394",red,"#f03"
"Class C",1256,"PENNAR AFTER CONF. WITH PAPAGNI,PUSPAGINI,A.P.",,"ANDHRA PRADESH","14.572795","78.79715",blue,"#00f"
"Class C",1257,"PENNAR AFTER CONF. WITH CHEYYURU,SOMASILE,A.P.",,"ANDHRA PRADESH","14.481442","79.290142",blue,"#00f"
"Class C",1258,"JHANJI AT N.H. CROSSING JORHAT, ASSAM",JHANJI,ASSAM,"26.846906","94.492244",blue,"#00f"
"NOT Class C",1259,"DHANSIRI AT GOLAGHAT, ASSAM",DHANSIRI,ASSAM,"26.503075","93.952372",red,"#f03"
"Class C",1260,"BRAHAMPUTRA AT KHERGHAT (AFTER CONFL. WITH DIBANG & DIHANG),ASSAM",BRAHAMPUTRA,ASSAM,"27.687681","95.297822",blue,"#00f"
"Class C",1261,"SUBANSIRI AT GEREKAMUKH,ASSAM,(BEFORE CONFL. WITH BRAH.),ASSAM",SUBANSIRI,ASSAM,"27.510417","94.953333",blue,"#00f"
"Class C",1262,"BRAHAMPUTRA AT NIMATIGHAT, ASSAM",BRAHAMPUTRA,ASSAM,"26.830744","94.172775",blue,"#00f"
"NOT Class C",1264,"MAHANADI AT RUDRI U/S AT DHAMTORI RESERVOIR,CHHATISSGARH",MAHANADI,CHHATTISGARH,"20.652037","81.551365",red,"#f03"
"NOT Class C",1265,"KHAROON AT RAIPUR U/S, CHHATTISGARH",KHAROON,CHHATTISGARH,"21.248011","81.542917",red,"#f03"
"NOT Class C",1266,"SEONATH AT SHIMGA AFTER CONFL. WITH R. KHAROON,CHHATISSGARH",SEONATH,CHHATTISGARH,"21.618808","81.695639",red,"#f03"
"NOT Class C",1267,"IB AT SUNDARGARH, ORISSA",IB,ORISSA,"22.124146","84.043157",red,"#f03"
"Class C",1268,"IB AT JHARSUGUDA (INTAKE), ORISSA",IB,ORISSA,"21.856425","84.002419",blue,"#00f"
"Class C",1269,"IB AT BRAJRAJNAGAR (INTAKE) D/S, ORISSA",IB,ORISSA,"21.828126","83.941121",blue,"#00f"
"NOT Class C",1270,"MAHANADI AT SAMBALPUR U/S, ORISSA",MAHANADI,ORISSA,"21.455443","83.960359",red,"#f03"
"NOT Class C",1271,"MAHANADI AT SAMBALPUR D/S, ORISSA",MAHANADI,ORISSA,"21.460108","83.969058",red,"#f03"
"NOT Class C",1272,"MAHANADI D/S (AFTER CONFL. WITH R. ONG SONEPUR U/S), ORISSA",MAHANADI,ORISSA,"20.865096","83.91172",red,"#f03"
"NOT Class C",1274,"MAHANADI AFTER CONFL. WITH R.TEL (SONEPUR D/S),ORISSA",,ORISSA,"20.855331","83.904147",red,"#f03"
"NOT Class C",1275,"MAHANADI AT TIKARPADA, ORISSA",MAHANADI,ORISSA,"20.612579","84.790163",red,"#f03"
"NOT Class C",1276,"MAHANADI AT NARSINGHPUR, ORISSA",MAHANADI,ORISSA,"20.463775","85.083179",red,"#f03"
"NOT Class C",1277,"MAHANADI AT CUTTACK U/S, ORISSA",MAHANADI,ORISSA,"20.490062","85.895865",red,"#f03"
"NOT Class C",1278,"MAHANADI AT CUTTACK D/S, ORISSA",MAHANADI,ORISSA,"20.48147","85.893506",red,"#f03"
"NOT Class C",1279,"KUAKHAI AT BHUBANESWAR U/S, ORISSA",KUAKHAI,ORISSA,"20.297906","85.882365",red,"#f03"
"NOT Class C",1280,"KUAKHAI AT BHUBANESWAR D/S, ORISSA",KUAKHAI,ORISSA,"20.297755","85.880734",red,"#f03"
"Class C",1281,"MAHANADI AT HIRAKUD RESERVOIR, ORISSA",MAHANADI,ORISSA,"21.516358","83.851139",blue,"#00f"
"NOT Class C",1282,"MAHANADI AT SHEORINARAYAN VILLAGE, CHHATISSGARH.",MAHANADI,CHHATTISGARH,"21.728709","82.568814",red,"#f03"
"Class C",1290,"PARVATI BEFORE CONF. TO RIVER BEAS, H.P.",,"HIMACHAL PRADESH","31.896167","77.147692",blue,"#00f"
"NOT Class C",1293,"SATLUJ AT 1 KM. D/S OF ZENITH, PUNJAB",SATLUJ,PUNJAB,"30.984964","76.4672",red,"#f03"
"Class C",1294,"BEAS AT 1KM.D/S OF EFFL. DISH. POINT AT MUKERIAN ,PUNJAB",BEAS,PUNJAB,"31.923867","75.541467",blue,"#00f"
"NOT Class C",1295,"GHAGGAR NEAR BANKARPUR,DERA BASSI,PUNJAB",,PUNJAB,"30.612283","76.829313",red,"#f03"
"NOT Class C",1298,"DISANG AT GUNDAMGHAT, ASSAM",DISANG,ASSAM,"27.311023","95.101786",red,"#f03"
"NOT Class C",1299,"BRAHAMPUTRA AT JOGIJHOGA NEAR BRIDGE, ASSAM",BRAHAMPUTRA,ASSAM,"26.214866","90.557934",red,"#f03"
"NOT Class C",13,"GODAVARI AT MANCHERIAL, A.P.",GODAVARI,"ANDHRA PRADESH","18.850151","79.442839",red,"#f03"
"NOT Class C",1300,"IB AT RAJ NAGAR U/S, ORISSA",IB,ORISSA,"21.863911","83.947739",red,"#f03"
"NOT Class C",1301,"KATHAJODI AT CUTTACK D/S, ORISSA",KATHAJODI,ORISSA,"20.444394","85.890897",red,"#f03"
"NOT Class C",1302,"BRAHMANI AT ROURKELA D/S, ORISSA",BRAHMANI,ORISSA,"22.182883","84.847889",red,"#f03"
"NOT Class C",1303,"BRAHMANI AT TALCHER U/S, ORISSA",BRAHMANI,ORISSA,"20.949817","85.216631",red,"#f03"
"NOT Class C",1304,"JHELAM AT ANANTNAG D/S, J&K",JHELAM,"JAMMU & KASHMIR","33.739602","75.134049",red,"#f03"
"NOT Class C",1306,"GAWKADAL, SRG *(SHERGHARI, SRG),J&K",,"JAMMU & KASHMIR","34.074254","74.807199",red,"#f03"
"NOT Class C",1307,"CHUNT KOL * (MAULANA AZAD BRIDGE), J&K",,"JAMMU & KASHMIR","34.078121","74.813495",red,"#f03"
"NOT Class C",1310,"KRISHNA AT KURUNDWAD IN KOLHAPUR,MAHARASHTRA",KRISHNA,MAHARASHTRA,"16.681396","74.590278",red,"#f03"
"NOT Class C",1311,"PANCHAGANGA AT ICHALKARANJI, MAHARASHTRA",PANCHAGANGA,MAHARASHTRA,"16.746155","74.445716",red,"#f03"
"NOT Class C",1312,"GODAVARI AT JAYAKWADI DAM, AURNAGABAD,MAHARASHTRA",GODAVARI,MAHARASHTRA,"19.485317","75.370099",red,"#f03"
"NOT Class C",1313,"TAPI AT AJNAND VILLAGE, MAHARASHTRA",TAPI,MAHARASHTRA,"21.24294","76.034146",red,"#f03"
"NOT Class C",1314,"TAPI AT UPHAD VILLAGE, MAHARASHTRA",TAPI,MAHARASHTRA,"21.546291","74.466807",red,"#f03"
"NOT Class C",1315,"NIRA AT PULGAON COTTON MILL, WARDHA, MAHARASHTRA",NIRA,MAHARASHTRA,"20.726241","78.31758",red,"#f03"
"NOT Class C",1320,"CAUVERY AT ERODE NEAR CHIRAPALAYAM, TAMILNADU",CAUVERY,TAMILNADU,"11.335795","77.753762",red,"#f03"
"NOT Class C",1321,"BHAVANI AT BHAVANI SAGAR, TAMILNADU",BHAVANI,TAMILNADU,"11.485294","77.134603",red,"#f03"
"NOT Class C",1322,"CAUVERY AT 1KM. D/S OF BHAVANI RIVER CONFL., TAMILNADU",CAUVERY,TAMILNADU,"11.445663","77.677626",red,"#f03"
"NOT Class C",1323,"CAUVERY AT VELORE NEAR KATTIPALAYAM, TAMILNADU",CAUVERY,TAMILNADU,"11.18","78.01",red,"#f03"
"NOT Class C",1324,"CAUVERY AT MOHANUR NEAR PATTAIPALAYAM, TAMILNADU",CAUVERY,TAMILNADU,"11.064392","78.120358",red,"#f03"
"NOT Class C",1325,"CAUVERY AT TIRUCHIRAPPALLI D/S, TAMILNADU",CAUVERY,TAMILNADU,"10.766809","78.665272",red,"#f03"
"NOT Class C",1326,"CAUVERY AT COLEROON, TAMILNADU",CAUVERY,TAMILNADU,"11.326822","79.702981",red,"#f03"
"NOT Class C",1327,"CAUVERY AT PITCHAVARAM, TAMILNADU",CAUVERY,TAMILNADU,"11.418828","79.772375",red,"#f03"
"NOT Class C",1328,"TAMBIRAPARANI AT PAPPANKULAM,TAMILNADU",TAMBIRAPARANI,TAMILNADU,"8.758606","77.424597",red,"#f03"
"NOT Class C",1329,"TAMBIRAPARANI AT RAIL BDG. NR. AMBASAMUDAM, TAMILNADU",TAMBIRAPARANI,TAMILNADU,"8.729581","77.467289",red,"#f03"
"NOT Class C",1330,"TAMBIRAPARANI AT ARUMUGANERI, TAMILNADU",TAMBIRAPARANI,TAMILNADU,"8.624431","78.068808",red,"#f03"
"NOT Class C",1331,"DAMODAR AT DISHERGARH VILL.(NR.BIHAR-WEST BENGAL BORDER),WEST BENGAL",DAMODAR,"WEST BENGAL","23.685031","86.823472",red,"#f03"
"NOT Class C",1332,"DAMODAR AT D/S OF IISCO AFTER 3RD OUTFALL AT DHENNA VILLAGE, WEST BENGAL",DAMODAR,"WEST BENGAL","23.646961","86.897068",red,"#f03"
"NOT Class C",1333,"DAMODAR AT NARAINPUR AFTER CONFL. OF NUNIA NALLAH, WEST BENGAL",DAMODAR,"WEST BENGAL","23.584399","87.103495",red,"#f03"
"NOT Class C",1334,"DAMODAR NEAR MUJHER MANA VILLAGE AFTER CONF. OF TAMLA NALLAH, WEST BENGAL",,"WEST BENGAL","23.429785","87.364995",red,"#f03"
"NOT Class C",1336,"BARAKAR AT ASANSOL (WATER INTAKE POINT), WEST BENGAL",BARAKAR,"WEST BENGAL","23.721689","86.801628",red,"#f03"
"NOT Class C",1337,"RUPNARAYAN BEFORE CONFL. TO RIVER GANGA NEAR GEONKHALI, WEST BENGAL",,"WEST BENGAL","22.21835","88.024305",red,"#f03"
"Class C",1338,"PERIYAR AT SEWAGE DISCHARGE POINT, KERALA",PERIYAR,KERALA,"9.581386","77.113642",blue,"#00f"
"NOT Class C",1339,"MEENACHIL AT KIDANGOOR, KERALA",MEENACHIL,KERALA,"10.197164","76.378953",red,"#f03"
"NOT Class C",1340,"MANIMALA AT KALLOOPARA, KERALA",MANIMALA,KERALA,"9.395686","76.640564",red,"#f03"
"NOT Class C",1341,"PAMBA AT THAKAZHY, KERALA",PAMBA,KERALA,"9.370489","76.410269",red,"#f03"
"Class C",1342,"ACHENKOIL AT THUMPAMON, KERALA",ACHENKOIL,KERALA,"9.228125","76.713267",blue,"#00f"
"NOT Class C",1350,"GOMTI AT SITAPUR U/S AT WATER INTAKE, U.P.",GOMTI,"UTTAR PRADESH","27.572878","80.67895",red,"#f03"
"NOT Class C",1351,"GOMTI AT LUCKNOW U/S AT WATER INTAKE POINT,U.P.",GOMTI,"UTTAR PRADESH","26.862031","80.931322",red,"#f03"
"NOT Class C",1352,"GOMTI AT LUCKNOW D/S, U.P.",GOMTI,"UTTAR PRADESH","26.833275","80.995211",red,"#f03"
"NOT Class C",1353,"GOMTI AT JAUNPUR D/S, U.P.",GOMTI,"UTTAR PRADESH","25.751611","82.726469",red,"#f03"
"NOT Class C",1354,"SARYU AT AYODHYA AT MAIN BATHING GHAT, U.P.",SARYU,"UTTAR PRADESH","26.797519","82.234306",red,"#f03"
"NOT Class C",1355,"GHAGHARA AT DEORIA D/S, U.P.",GHAGHARA,"UTTAR PRADESH","26.169467","83.868992",red,"#f03"
"Class C",1359,"RIHAND AT RENUKUT U/S, U.P.",RIHAND,"UTTAR PRADESH","24.339814","83.003589",blue,"#00f"
"NOT Class C",1360,"RIHAND AT RENUKUT D/S, U.P.",RIHAND,"UTTAR PRADESH","24.261214","83.009353",red,"#f03"
"NOT Class C",1361,"SAI AT UNNAO AFTER DRAIN OUTFALL, U.P.",SAI,"UTTAR PRADESH","26.649979","80.793854",red,"#f03"
"NOT Class C",1363,"RAPTI AFTER CONFL. OF R. HONIN NR. DOMINGARH RLY BRIDGE, GORAKHPUR, U.P.",,"UTTAR PRADESH","26.754692","83.334211",red,"#f03"
"NOT Class C",1375,"YAMUNA AT OKHLA BRIDGE (INLET OF AGRA CANAL), DELHI",YAMUNA,DELHI,"28.566967","77.294665",red,"#f03"
"NOT Class C",1380,"SATLUJ AT D/S NFL, PUNJAB",SATLUJ,PUNJAB,"31.356053","76.372837",red,"#f03"
"NOT Class C",1381,"SATLUJ AT D/S EAST BASIN, PUNJAB",SATLUJ,PUNJAB,"31.01532","75.715315",red,"#f03"
"NOT Class C",1384,"MANIMALA AT THONDRA, KERALA",MANIMALA,KERALA,"9.492842","76.749125",red,"#f03"
"Class C",1386,"CAUVERY AT D/S OF KAREKUARA VILLAGE, KARNATAKA",CAUVERY,KARNATAKA,"12.418187","76.679259",blue,"#00f"
"NOT Class C",1387,"BHADRA AT D/S OF BHADRAVATHI, KARNATAKA",BHADRA,KARNATAKA,"13.832272","75.713164",red,"#f03"
"Class C",1389,"SATLUJ AT NEPTHA ZAKHAI, H.P",SATLUJ,"HIMACHAL PRADESH","31.859386","77.165125",blue,"#00f"
"NOT Class C",1393,"DAMANGANGA AT D/S OF MADHUBAN, DAMAN",DAMANGANGA,"DAMAN & DIU","20.411819","72.833264",red,"#f03"
"NOT Class C",1399,"ZUARI AT D/S OF PT. WHERE KUMBARJRIA CANAL JOINS, GOA",ZUARI,GOA,"15.2715","74.08885",red,"#f03"
"Class C",14,"GODAVARI AT POLAVARAM, A.P.",GODAVARI,"ANDHRA PRADESH","17.247331","81.646613",blue,"#00f"
"NOT Class C",1400,"MANDOVI AT NEGHBOURHOOD OF PANAJI, GOA",MANDOVI,GOA,"15.499719","73.834744",red,"#f03"
"Class C",1403,"GUMTI AT U/S SOUTH TRIPURA,TRIPURA",GUMTI,TRIPURA,"23.429167","91.398333",blue,"#00f"
"NOT Class C",1404,"GUMTI AT D/S SOUTH TRIPURA, TRIPURA",GUMTI,TRIPURA,"23.537956","91.505147",red,"#f03"
"NOT Class C",1407,"SABARMATI AT GANDHINAGAR CHILODA BRIDGE, LEKAWADA, GUJARAT",SABARMATI,GUJARAT,"23.245906","72.68218",red,"#f03"
"NOT Class C",1408,"SABARMATI AT VILL. MAROLI TALUKA DASCROI, AHMEDABAD, GUJARAT",SABARMATI,GUJARAT,"23.031314","72.575114",red,"#f03"
"NOT Class C",1409,"SABARMATI AT RAILWAY BRIDGE, AHMEDABAD",SABARMATI,GUJARAT,"23.06353","72.589064",red,"#f03"
"Class C",1422,"BURHIDIHING AT MARGHERITA, ASSAM",BURHIDIHING,ASSAM,"27.284622","95.662347",blue,"#00f"
"Class C",1423,"BORAK AT PANCHAGRAM , ASSAM",BORAK,ASSAM,"24.8674","92.600817",blue,"#00f"
"NOT Class C",1427,"UMTREW AT BYRNIHAT EAST, MEGHALAYA",UMTREW,MEGHALAYA,"26.051514","91.869639",red,"#f03"
"NOT Class C",1428,"KYRHUKHLA NEAR SUTNGA KHLIERIAT,JAINTIA HILLS DT.,MEGHALAYA",,MEGHALAYA,"25.367394","92.450206",red,"#f03"
"NOT Class C",1434,"AMLAKHADI AFTER CONFL. OF W. WATER FROM ANKLESH,GUJARAT",,GUJARAT,"21.701178","73.021733",red,"#f03"
"NOT Class C",1435,"KOLAK AT RAILWAY BRIDGE NO. 313 VAPI, VALSAD",KOLAK,GUJARAT,"20.342461","72.905403",red,"#f03"
"NOT Class C",1436,"BHADAR V/S JETPUR VILL. A/C OF W. WATER FROM JETPUR CITY, GUJARAT",,GUJARAT,"21.763115","70.424313",red,"#f03"
"NOT Class C",1437,"KHARI AT LALI VILLAGE NEAR AHMEDABAD",KHARI,GUJARAT,"22.868749","72.627351",red,"#f03"
"NOT Class C",1438,"MINDHOLA AT STATE HIGHWAY BRIDGE SACHIN",MINDHOLA,GUJARAT,"21.111549","73.111601",red,"#f03"
"Class C",1442,"VAMANAPURAM, KERALA",,KERALA,"8.726347","76.878039",blue,"#00f"
"Class C",1443,"ACHENKOIL AT CHENNITHULA, KERALA",ACHENKOIL,KERALA,"9.270844","76.535403",blue,"#00f"
"NOT Class C",1444,"KALI AT D/S WEST COAST PAPER MILL, KARNATAKA",KALI,KARNATAKA,"15.235272","74.61865",red,"#f03"
"Class C",1445,"KABBANI AT WATER INTAKE OF KIADB AT NANJANGUD,KARNATAKA",KABBANI,KARNATAKA,"12.128439","76.683919",blue,"#00f"
"Class C",1448,"NAGAVALLI AT THOTAPALLI REGULATOR, A.P.",NAGAVALLI,"ANDHRA PRADESH","18.787433","83.494512",blue,"#00f"
"Class C",1450,"PALAR AT VANIYAMBADI WATER SUPPLY HEAD WORK, TAMILNADU",PALAR,TAMILNADU,"12.679231","78.595417",blue,"#00f"
"NOT Class C",1451,"CAUVERY AT THIRUMUKKUDAL-CONFL. PT.OF R. AMRAVATI,TAMILNADU",CAUVERY,TAMILNADU,"11.050024","78.120645",red,"#f03"
"NOT Class C",1455,"RUSHIKULYA AT GANJAM U/S, ORISSA",RUSHIKULYA,ORISSA,"19.387126","85.051001",red,"#f03"
"NOT Class C",1456,"RUSHIKULYA AT GANJAM D/S, ORISSA",RUSHIKULYA,ORISSA,"19.387194","85.051105",red,"#f03"
"NOT Class C",1461,"BHATSA AT D/S OF PISE DAM NEAR PISE VILLAGE (ULHAS), MAHARASHTRA",BHATSA,MAHARASHTRA,"19.311193","73.169404",red,"#f03"
"NOT Class C",1462,"PATALGANGA NEAR INTAKE OF MIDC W/W, MAHARASHTRA",,MAHARASHTRA,"18.830474","73.284483",red,"#f03"
"NOT Class C",1463,"NIRA AT SAROLE BDG.ON PUNE-BANGLORE HIGHWAY, MAHARASHTRA",NIRA,MAHARASHTRA,"18.172703","73.953644",red,"#f03"
"NOT Class C",1465,"KRISHNA AT WADAPALLY AFTER CONFL. WITH R. MUSI, A.P.(SHIFTED FROM 1220)",KRISHNA,"ANDHRA PRADESH","16.694675","79.689933",red,"#f03"
"NOT Class C",1467,"MAHANADI AFTER CONFL. WITH RIVER MAND,CHHATISSGARH",,CHHATTISGARH,"21.695876","83.2426",red,"#f03"
"NOT Class C",1469,"GANGA AT DIAMOND HARBOUR, WEST BENGAL",GANGA,"WEST BENGAL","22.183383","88.193783",red,"#f03"
"NOT Class C",1470,"GANGA AT GARDEN REACH, WEST BENGAL",GANGA,"WEST BENGAL","22.549717","88.296125",red,"#f03"
"NOT Class C",1471,"GANGA AT HOWRAH-SHIVPUR, WEST BENGAL",GANGA,"WEST BENGAL","22.558292","88.324394",red,"#f03"
"NOT Class C",1472,"GANGA AT SERAMPORE, WEST BENGAL",GANGA,"WEST BENGAL","22.761306","88.340319",red,"#f03"
"NOT Class C",1473,"GHAGGAR AT RATANHERI, D/S OF PATIALA NADI (AFTER CONFL.), PUNJAB",GHAGGAR,PUNJAB,"30.079758","76.263251",red,"#f03"
"NOT Class C",1475,"ZUARI AT PANCHAWADI",ZUARI,GOA,"15.281044","74.071108",red,"#f03"
"NOT Class C",1476,"MANDOVI AT TONCA, MARCELA, GOA",MANDOVI,GOA,"15.550258","73.949164",red,"#f03"
"NOT Class C",1480,"KALINADI AT U/S OF GULAOTHI TOWN IN BULANDSAHAR, U.P.",KALINADI,"UTTAR PRADESH","28.591525","77.824856",red,"#f03"
"Class C",1484,"ALKANANDA B/C MANDAKINI AT RUDRA PRAYAG, UTTAR PRADESH","ALKANANDA B/C MANDAKINI",UTTARAKHAND,"30.287506","78.985451",blue,"#00f"
"Class C",1486,"ALKANANDA A/C MANDAKINI AT RUDRAPRAYAG, UTTAR PRADESH","ALKANANDA A/C MANDAKINI",UTTARAKHAND,"30.285854","78.978295",blue,"#00f"
"Class C",1488,"BHAGIRATHI B/C WITH ALAKNANDA AT DEVPRAYAG, U.P","BHAGIRATHI B/C WITH ALAKNANDA",UTTARAKHAND,"30.147103","78.598107",blue,"#00f"
"Class C",1489,"ALKANANDA A/C WITH BHAGIRATHI AT DEVPRAYAG, UTTAR PRADESH","ALKANANDA A/C WITH BHAGIRATHI",UTTARAKHAND,"30.140504","78.597358",blue,"#00f"
"NOT Class C",1490,"YAMUNA AT U/S DAK PATTHAR, UTTAR PARDESH",YAMUNA,UTTARAKHAND,"30.498618","77.803498",red,"#f03"
"NOT Class C",1491,"BHAGIRATHI AT GANGOTRI, UTTAR PRADESH",BHAGIRATHI,UTTARAKHAND,"30.946033","78.688498",red,"#f03"
"NOT Class C",1492,"YAMUNA AT YAMUNOTRI, UTTAR PRADESH",YAMUNA,UTTARAKHAND,"30.976465","78.438614",red,"#f03"
"NOT Class C",1493,"YAMUNA AT HANUMANCHATTI, UTTAR PRADESH",YAMUNA,UTTARAKHAND,"30.932423","78.400244",red,"#f03"
"NOT Class C",1494,"YAMUNA AT U/S OF LAKHWAR DAM, U.P",YAMUNA,UTTARAKHAND,"30.518822","77.949536",red,"#f03"
"NOT Class C",1496,"YAMUNA AT KALANAUR, YAMUNA NAGAR, HARYANA",YAMUNA,HARYANA,"30.069997","77.355057",red,"#f03"
"NOT Class C",1497,"YAMUNA AT MAZAWALI, U.P",YAMUNA,"UTTAR PRADESH","28.095092","77.477669",red,"#f03"
"NOT Class C",1498,"YAMUNA AT BATESWAR, U.P",YAMUNA,"CPCB, DELHI","26.932682","78.54366",red,"#f03"
"NOT Class C",1499,"YAMUNA AT JUHIKA B/C WITH CHANBAL, ETAWAH, U.P",YAMUNA,"CPCB, DELHI","26.42602","79.478799",red,"#f03"
"NOT Class C",1526,"BRAHMPUTRA RIVER AT DHENUKHAPAHAR, ASSAM","BRAHMPUTRA RIVER",ASSAM,"26.616375","92.82735",red,"#f03"
"NOT Class C",1527,"BHOGDOI RIVER AT JORHAT ,ASSAM","BHOGDOI RIVER",ASSAM,"26.781058","94.208548",red,"#f03"
"NOT Class C",1528,"BHARALU RIVER AT GUWAHATI","BHARALU RIVER",ASSAM,"26.167661","91.765289",red,"#f03"
"NOT Class C",1529,"DEEPAR BILL, ASSAM*",,ASSAM,"26.119297","91.647713",red,"#f03"
"NOT Class C",1530,"DIGBOI RIVER AT LAKHIPATHE, RESERVE FOREST, DIGBOI, ASSAM","DIGBOI RIVER",ASSAM,"27.381964","95.622819",red,"#f03"
"Class C",1531,"*MORA BHARALI AT TEZPUR, ASSAM","*MORA BHARALI",ASSAM,"26.848745","92.840375",blue,"#00f"
"NOT Class C",1543,"RIVER KALNA AT CHANDEL- PERNEM, GOA","RIVER KALNA",GOA,"15.74629","73.899494",red,"#f03"
"NOT Class C",1544,"RIVER VALVANT AT SANKLI - BICHOLIM, GOA","RIVER VALVANT",GOA,"15.561455","73.990584",red,"#f03"
"NOT Class C",1545,"RIVER MADAI AT DABOS - VALPOI, GOA","RIVER MADAI",GOA,"15.536364","74.148515",red,"#f03"
"NOT Class C",1546,"RIVER KHANDEPAR AT OPA - PONDA, GOA","RIVER KHANDEPAR",GOA,"15.466425","74.038825",red,"#f03"
"NOT Class C",1547,"RIVER TALPONA AT CANACONA, GOA","RIVER TALPONA",GOA,"14.98929","74.04736",red,"#f03"
"NOT Class C",1548,"RIVER ASSONORA AT ASSONORA, GOA","RIVER ASSONORA",GOA,"15.615148","73.900658",red,"#f03"
"Class C",1550,"BEAS AT U/S MANDI, H.P",BEAS,"HIMACHAL PRADESH","31.705853","76.934903",blue,"#00f"
"NOT Class C",1551,"SIRSA AT U/S SITOMAJRI NALLAHGARH, H.P",SIRSA,"HIMACHAL PRADESH","30.919003","76.806214",red,"#f03"
"NOT Class C",1552,"SIRSA AT D/S NALAGARH BRIDGE, H.P",SIRSA,"HIMACHAL PRADESH","30.915403","76.791131",red,"#f03"
"Class C",1553,"YAMUNA , U/S PAONTA SAHIB, H.P","YAMUNA ,","HIMACHAL PRADESH","30.392244","77.572103",blue,"#00f"
"NOT Class C",1554,"YAMUNA , D/S PAONTA SAHIB, H.P","YAMUNA ,","HIMACHAL PRADESH","30.465256","77.661758",red,"#f03"
"Class C",1563,"R NEYYAR AT AMARAVILA, KERALA","R NEYYAR",KERALA,"8.389375","77.097561",blue,"#00f"
"Class C",1564,"R ITHIKKARA AT AYUR, KERALA","R ITHIKKARA",KERALA,"8.860786","76.77355",blue,"#00f"
"NOT Class C",1565,"PAMBA DOWN, KERALA",,KERALA,"9.325719","76.520939",red,"#f03"
"Class C",1566,"R KADALUNDI AT THIRURANGADY, KERALA","R KADALUNDI",KERALA,"11.044714","75.933247",blue,"#00f"
"NOT Class C",1567,"R KUTTIYADE AT KUTTIYADY ESTATE, KERALA","R KUTTIYADE",KERALA,"11.602297","75.7051",red,"#f03"
"NOT Class C",1568,"R MAHE AT VALAYAM, KERALA","R MAHE",KERALA,"11.721112","75.670002",red,"#f03"
"NOT Class C",1569,"R KUPPAM AT THALIPARAMBA, KERALA","R KUPPAM",KERALA,"12.048958","75.346",red,"#f03"
"NOT Class C",1570,"R NEELESWARAM AT HOSDURG, KERALA","R NEELESWARAM",KERALA,"12.4225","75.202778",red,"#f03"
"NOT Class C",1571,"R KARINGODE AT KAKKADAVU, KERALA","R KARINGODE",KERALA,"10.742228","77.060508",red,"#f03"
"NOT Class C",1572,"CHANDRAGIRI AT PADIYATHADKA, KERALA",CHANDRAGIRI,KERALA,"10.778033","76.225347",red,"#f03"
"NOT Class C",1573,"CHITRAPUZHA AT IRUMPANAM, KERALA",CHITRAPUZHA,KERALA,"9.971133","76.362003",red,"#f03"
"NOT Class C",1631,"MYNTDU RIVER JOWAI, MEGHALAYA",,MEGHALAYA,"25.439233","92.219175",red,"#f03"
"NOT Class C",1632,"GANOL RIVER TURA, MEGHALAYA",,MEGHALAYA,"25.548467","90.171447",red,"#f03"
"Class C",1633,"SIMSANG RIVER WILLIAMNAGAR, MEGHALAYA",,MEGHALAYA,"25.473479","90.620548",blue,"#00f"
"NOT Class C",1640,"BIRUPA AT CHOUDWAR, ORISSA",BIRUPA,ORISSA,"20.546532","85.91187",red,"#f03"
"NOT Class C",1641,"SUBARNAREKHA AT RAJGHAT NEAR JHARKHAND BORDER, ORISSA",SUBARNAREKHA,ORISSA,"21.770058","87.156229",red,"#f03"
"NOT Class C",1642,"NAGAVALLI AT JAYKAYPUR D/S, ORISSA",NAGAVALLI,ORISSA,"19.252625","83.417656",red,"#f03"
"NOT Class C",1643,"NAGAVALLI AT RAYAGADA D/S, ORISSA",NAGAVALLI,ORISSA,"19.166051","83.437289",red,"#f03"
"NOT Class C",1685,"ARASALAR RIVER KARAIKAL REGION, PONDICHERRY",,PONDICHERRY,"10.9098","79.818228",red,"#f03"
"Class C",1690,"SATLUJ AT U/S BUDHA NALLAH (UPPER), PUNJAB",SATLUJ,PUNJAB,"30.922369","75.919469",blue,"#00f"
"Class C",1691,"SATLUJ AT U/S HUSSANIWALA - H/W FEROZEPUR, PUNJAB",SATLUJ,PUNJAB,"30.995289","74.552492",blue,"#00f"
"Class C",1692,"SATLUJ AT D/S HUSSANIWALA-H/W FEROZEPUR, PUNJAB",SATLUJ,PUNJAB,"30.99008","74.54847",blue,"#00f"
"Class C",1693,"BEAS AT TALWARA H/W, PUNJAB",BEAS,PUNJAB,"31.989016","75.832499",blue,"#00f"
"Class C",1694,"BEAS AT U/S PATHANKOT, PUNJAB",BEAS,PUNJAB,"32.111503","75.663325",blue,"#00f"
"Class C",1695,"BEAS AT D/S PATHANKOT,PUNJAB",BEAS,PUNJAB,"32.093633","75.609725",blue,"#00f"
"Class C",1696,"BEAS AT U/S GOINDWAL, PUNJAB",BEAS,PUNJAB,"31.385361","75.176625",blue,"#00f"
"Class C",1697,"BEAS AT HARIKE, PUNJAB",BEAS,PUNJAB,"31.508844","75.307539",blue,"#00f"
"NOT Class C",1698,"D/S CHHATBIR, PUNJAB",,PUNJAB,"30.60228","76.802188",red,"#f03"
"NOT Class C",1699,"U/S DHAKANSU NALLAH, PUNJAB",,PUNJAB,"30.764802","76.7246",red,"#f03"
"NOT Class C",17,"PERIYAR NEAR ALWAYE-ELOOR, KERALA",,KERALA,"10.123417","76.347425",red,"#f03"
"NOT Class C",1700,"D/S DHAKANSU NALLAH, PUNJAB",,PUNJAB,"30.759546","76.735991",red,"#f03"
"NOT Class C",1701,"D/S JHARMAL NADI, PUNJAB",,PUNJAB,"30.65012","76.660536",red,"#f03"
"NOT Class C",1702,"U/S JHARMAL NADI, PUNJAB",,PUNJAB,"30.660148","76.6603",red,"#f03"
"NOT Class C",1703,"GHAGGER AT MOONAK, PUNJAB",GHAGGER,PUNJAB,"30.000058","76.187589",red,"#f03"
"NOT Class C",1704,"D/S SARDULGARH, PUNJAB",,PUNJAB,"29.692715","75.210696",red,"#f03"
"NOT Class C",1705,"U/S SARDULGARH, PUNJAB",,PUNJAB,"29.695479","75.224583",red,"#f03"
"Class C",1717,"KODRA DAM, MOUNT ABU, RAJASTHAN",,RAJASTHAN,"24.499492","72.666469",blue,"#00f"
"NOT Class C",1726,"CHANDRAPUR, AGARTALA D/S OF HAORA RIVER, TRIPURA","CHANDRAPUR, AGARTALA",TRIPURA,"23.822819","91.296914",red,"#f03"
"NOT Class C",1764,"CHURNI D/S OF SANTIPUR TOWN, WEST BENGAL",CHURNI,"WEST BENGAL","23.177966","88.558164",red,"#f03"
"NOT Class C",1784,"THANGADI , MAHABOOBNAGAR DIST., A.P",,"ANDHRA PRADESH","16.424222","77.278883",red,"#f03"
"Class C",1785,"TUNGHABHADRA AT MANTHRALAYAM , KURNOOL DIST., A.P",TUNGHABHADRA,"ANDHRA PRADESH","15.944453","77.419709",blue,"#00f"
"Class C",1786,"VEDADRI , GUNTUR DIST., A.P",,"ANDHRA PRADESH","16.801875","80.129553",blue,"#00f"
"NOT Class C",1787,"AMARAVATI , GUNTUR DIST., A.P",,"ANDHRA PRADESH","16.582608","80.343451",red,"#f03"
"NOT Class C",1796,"DHANSIRI AT FULL NAGARJAN, NAGALAND",DHANSIRI,NAGALAND,"25.888505","93.733632",red,"#f03"
"NOT Class C",1798,"DHANSIRI NEAR CHECK GATE (DIMAPUR KHUTKHUTI ROAD), NAGALAND",,NAGALAND,"25.910359","93.743963",red,"#f03"
"NOT Class C",1799,"DHANSIRI AT TOWN BOUNDARY BRIDGE (DIPHU ROAD), NAGALAND",DHANSIRI,NAGALAND,"26.622872","93.773159",red,"#f03"
"Class C",18,"PERIYAR AT KALADY, KERALA",PERIYAR,KERALA,"10.160483","76.442131",blue,"#00f"
"NOT Class C",1800,"DHANSIRI AT NUTON BASTI, NAGALAND",DHANSIRI,NAGALAND,"25.802","93.606574",red,"#f03"
"NOT Class C",1812,"YAMUNA AT OKHLA AFTER MEETING OF SHAHDARA DRAIN, DELHI",YAMUNA,DELHI,"28.533295","77.330724",red,"#f03"
"NOT Class C",1815,"GANGA AT MOKAMA (D/S)",GANGA,BIHAR,"25.381441","85.987169",red,"#f03"
"NOT Class C",1816,"GANGA AT KAHALGAON",GANGA,BIHAR,"25.267334","87.227318",red,"#f03"
"Class C",1817,"GANGA AT MOKAMA (U/S)",GANGA,BIHAR,"25.401104","85.923198",blue,"#00f"
"Class C",1818,"GANGA AT MUNGER",GANGA,BIHAR,"25.384978","86.458978",blue,"#00f"
"NOT Class C",1819,"GANGA AT BHAGALPUR",GANGA,BIHAR,"25.254387","86.948424",red,"#f03"
"Class C",1820,"SIKRANA AT CHANPATIYA",SIKRANA,BIHAR,"26.960335","84.534192",blue,"#00f"
"Class C",1821,"DAHA AT SIWAM",DAHA,BIHAR,"26.222639","84.354122",blue,"#00f"
"NOT Class C",1822,"SIRSA AT RUXOL",SIRSA,BIHAR,"26.98375","84.857739",red,"#f03"
"NOT Class C",1823,"DHOUS AT MADHUBANI",DHOUS,BIHAR,"26.410836","86.237178",red,"#f03"
"Class C",1824,"FARMAR AT JOGBANI",FARMAR,BIHAR,"26.399461","87.242477",blue,"#00f"
"Class C",1845,"RIVER SHEONATH AT DURG","RIVER SHEONATH",CHHATTISGARH,"21.189994","81.280092",blue,"#00f"
"NOT Class C",1846,"KHAROON RIVER A/C KHAPRI DRAIN",,CHHATTISGARH,"21.179853","81.2545",red,"#f03"
"NOT Class C",1847,"KHAROON RIVER B/C KHAPRI DRAIN, DURG, RAIPUR ROAD BRIDGE",,CHHATTISGARH,"21.200022","81.237472",red,"#f03"
"NOT Class C",1848,"ARPA RIVER D/S OF BILASPUR","ARPA RIVER",CHHATTISGARH,"22.069453","82.190639",red,"#f03"
"Class C",1849,"KELO RIVER U/S OF RAIGARH","KELO RIVER",CHHATTISGARH,"21.914789","83.404678",blue,"#00f"
"Class C",1850,"KELO RIVER D/S OF RAIGARH","KELO RIVER",CHHATTISGARH,"21.911203","83.407498",blue,"#00f"
"Class C",1851,"MAHANADI AT SIHAWA",MAHANADI,CHHATTISGARH,"20.308614","81.917614",blue,"#00f"
"NOT Class C",1852,"MAHANADI AT ARRANG, RAIPUR",MAHANADI,CHHATTISGARH,"21.15025","82.002864",red,"#f03"
"NOT Class C",1853,"KHAROON RIVER BUNDRI, RAIPUR",,CHHATTISGARH,"21.105793","81.579948",red,"#f03"
"Class C",1854,"INDRAVATI RIVER A/C DANTEWADA RIVER, NELSONNAR, DANTEWADA.",,CHHATTISGARH,"18.900033","81.344044",blue,"#00f"
"Class C",1856,"SHANKNI RIVER A/C DANKANI RIVER DANTEWADA.",,CHHATTISGARH,"18.888807","81.370074",blue,"#00f"
"NOT Class C",1860,"BALEHWAR KHADI AT N.H. NO 8","BALEHWAR KHADI",GUJARAT,"21.223442","72.89572",red,"#f03"
"NOT Class C",1861,"PURNA ON BRIDGE AT SURAT- NAVSARI HIGHWAY","PURNA ON BRIDGE",GUJARAT,"20.980464","73.016757",red,"#f03"
"NOT Class C",1862,"KAVERI ON BRIDGE AT BILLIMORA-VALSAD ROAD","KAVERI ON BRIDGE",GUJARAT,"20.756033","73.066786",red,"#f03"
"NOT Class C",1863,"MAHI AI UMETA BRIDGE",,GUJARAT,"22.342298","73.052575",red,"#f03"
"NOT Class C",1864,"MAHI AT MUJPUR",MAHI,GUJARAT,"22.254744","72.982618",red,"#f03"
"NOT Class C",1865,"RIVER DHADAR AT KOTHADA","RIVER DHADAR",GUJARAT,"22.023279","70.368724",red,"#f03"
"NOT Class C",1866,"RIVER SABARMATI AT HANSOL BRIDGE","RIVER SABARMATI",GUJARAT,"23.090926","72.629239",red,"#f03"
"Class C",1867,"SATLUJ B/C WITH RIVER SPITI AT KHAB, DISTT.KINNAUR, H.P.","SATLUJ B/C WITH RIVER SPITI","HIMACHAL PRADESH","31.804453","78.643214",blue,"#00f"
"NOT Class C",1868,"SIRSA AT D/S NALAGARH DISTT. SOLAN, H.P.",SIRSA,"HIMACHAL PRADESH","30.998567","76.738231",red,"#f03"
"NOT Class C",1869,"SWAN AT D/S NANGAL DISTT. UNA, H.P.",SWAN,"HIMACHAL PRADESH","31.365081","76.306519",red,"#f03"
"NOT Class C",1870,"RIVER SUKHANA AT PARWANOO, DISTT. SOLAN, H.P.","RIVER SUKHANA","HIMACHAL PRADESH","30.83115","76.967303",red,"#f03"
"Class C",1871,"RIVER MARKANDA AT PAONTA, DISTT. SIRMOUR, H.P.","RIVER MARKANDA","HIMACHAL PRADESH","30.451836","77.581597",blue,"#00f"
"NOT Class C",1884,"RIVER GHAGGAR AT D/S OF SURAJPUR","RIVER GHAGGAR",HARYANA,"29.892141","76.235744",red,"#f03"
"NOT Class C",1887,"GHAGGAR BEFORE OTTU WEIR (BEFORE MIXING OF SATLUJ CANAL WATER) (HARYANA)",,HARYANA,"29.546972","74.943111",red,"#f03"
"NOT Class C",1889,"KRISHNA - ANKALI BRIDGE ALONG CHIKKODI KAGWAD ROAD",,KARNATAKA,"16.5575","74.679717",red,"#f03"
"NOT Class C",1891,"MANJEERA AT D/S IN INTAKE POINT TO BIDAR CITY",MANJEERA,KARNATAKA,"17.951522","77.649047",red,"#f03"
"Class C",1892,"NETRAVATHI U/S OF DHARMASTALA AT WATER SUPPLY INTAKE POINT","NETRAVATHI U/S OF DHARMASTALA",KARNATAKA,"12.947644","75.359525",blue,"#00f"
"Class C",1893,"YAGACHI RIVER NEAR PUMPING STATION. HASSAN CITY",,KARNATAKA,"13.006814","76.099553",blue,"#00f"
"Class C",1894,"KUMARADHARA - U/S OF UPPINAGADY TOWN BEFORE CONFLUENCE WITH RIVER NETHRAVATHI","KUMARADHARA -",KARNATAKA,"12.8301","75.242439",blue,"#00f"
"NOT Class C",1895,"KAGINA D/S OF SEWAGE DISPOSAL POINT",KAGINA,KARNATAKA,"17.107483","76.955311",red,"#f03"
"NOT Class C",1896,"CONFLUENCE POINT OF TUNGA AND BHADRA AT KUDLI","CONFLUENCE POINT OF TUNGA AND BHADRA",KARNATAKA,"14.011333","75.676667",red,"#f03"
"NOT Class C",1904,"PANCHAGANGA U/S OF KOLHAPUR TOWN",PANCHAGANGA,MAHARASHTRA,"16.688467","74.169462",red,"#f03"
"NOT Class C",1905,"PANCHAGANGA D/S OF KOLHAPUR TOWN",PANCHAGANGA,MAHARASHTRA,"16.695477","74.274998",red,"#f03"
"NOT Class C",1906,"KRISHNA D/S OF ISLAMPUR",KRISHNA,MAHARASHTRA,"17.029275","74.380064",red,"#f03"
"NOT Class C",1907,"RANGAVALI D/S OF NAVAPUR",RANGAVALI,MAHARASHTRA,"21.161624","73.793751",red,"#f03"
"NOT Class C",1908,"KOLAR BEFORE CONFLUENCE TO KANHAN AT KAMPTEE","KOLAR BEFORE CONFLUENCE TO KANHAN",MAHARASHTRA,"21.246917","79.153882",red,"#f03"
"NOT Class C",1910,"WAINGANGA AFTER CONLUENCE WITH KANHAN",,MAHARASHTRA,"19.731126","79.776401",red,"#f03"
"NOT Class C",1911,"CHANDRABHAGA U/S OF PANDHARPUR TOWN",CHANDRABHAGA,MAHARASHTRA,"17.724868","75.323936",red,"#f03"
"NOT Class C",1912,"CHANDRABHAGA D/S OF PANDHARPUR TOWN",CHANDRABHAGA,MAHARASHTRA,"17.677706","75.339011",red,"#f03"
"NOT Class C",1913,"PURNA AT DHUPESHWAR",PURNA,MAHARASHTRA,"20.933469","76.276878",red,"#f03"
"NOT Class C",1928,"DHANSIRI AT NAGALAND-ASSAM BORDER, DIMAPUR",DHANSIRI,NAGALAND,"25.801511","93.606777",red,"#f03"
"NOT Class C",1929,"CHATHE AT MEDZIPHEMA, DIMAPUR",CHATHE,NAGALAND,"25.752349","93.869559",red,"#f03"
"NOT Class C",1930,"DZU D/S KOHIMA TOWN",DZU,NAGALAND,"25.67564","94.109775",red,"#f03"
"NOT Class C",1946,"MAHANANDA AT SILIGURI",MAHANANDA,"WEST BENGAL","26.739728","88.422452",red,"#f03"
"NOT Class C",1947,"TEESTA AT SILIGURI",TEESTA,"WEST BENGAL","26.902782","88.47309",red,"#f03"
"NOT Class C",1980,"AMLAKHADI AT PUNGAM ANKLESHWAR DISTT BHARUCH",AMLAKHADI,GUJARAT,"21.631161","72.956485",red,"#f03"
"Class C",1981,"NARMADA AT ZANOR (NTPC), BHARUCH",NARMADA,GUJARAT,"21.714997","73.042891",blue,"#00f"
"Class C",1982,"TAPI AT RANDER BRIDGE, SURAT",TAPI,GUJARAT,"21.194545","72.811552",blue,"#00f"
"NOT Class C",20,"CHALIYAR AT KOOLIMADU, KERALA",CHALIYAR,KERALA,"11.268106","75.978036",red,"#f03"
"NOT Class C",2050,"TLAWNG UPSTREAM AIZAWL",,MIZORAM,"23.712028","92.663875",red,"#f03"
"NOT Class C",2051,"TLAWNG DOWNSTREAM AIZAWL",,MIZORAM,"23.711097","92.665208",red,"#f03"
"NOT Class C",2052,"TUIRIAL UPPER CATCHMENT",,MIZORAM,"23.721011","92.799853",red,"#f03"
"NOT Class C",2053,"TUIRIAL LOWER CATCHMENT",,MIZORAM,"23.720986","92.799764",red,"#f03"
"NOT Class C",2058,"DISANG RIVER AT DILLIGHAT, DIBRUGARH DIST., ASSAM","DISANG RIVER",ASSAM,"27.141901","95.36639",red,"#f03"
"Class C",2059,"KOLONG RIVER AT MARIGAON","KOLONG RIVER",ASSAM,"26.265026","92.264751",blue,"#00f"
"Class C",2060,"MANAS RIVER AT NH-31 CROSSING, BARPETA, DISTRICT","MANAS RIVER",ASSAM,"26.496268","90.652663",blue,"#00f"
"Class C",2061,"KHARSANG BEFORE CONFLUENCE WITH BURIDIHING NEAR KHARSANG (ASSAM-ARUNANCHAL BORDER)",,ASSAM,"27.411803","95.985028",blue,"#00f"
"NOT Class C",2062,"BURIDIHING NEAR DULIAJAN AT D/S, TINSUKIA","BURIDIHING NEAR DULIAJAN",ASSAM,"27.321156","95.309064",red,"#f03"
"NOT Class C",2063,"JAI BHARALI RIVER NEAR BISWANATH CHARALI, SONITPUR",,ASSAM,"26.759281","92.858803",red,"#f03"
"Class C",2064,"BRAHMAPUTRA RIVER AT CHANDRAPUR, GUWAHATI","BRAHMAPUTRA RIVER",ASSAM,"26.24776","91.918205",blue,"#00f"
"Class C",2065,"PAGLDIA RIVER NEAR NALBARI TOWN, DIST. NALBARI, ASSAM",,ASSAM,"26.447389","91.460667",blue,"#00f"
"Class C",2066,"BRAHMAPUTRA RIVER AT DHUBRI","BRAHMAPUTRA RIVER",ASSAM,"26.015519","89.993294",blue,"#00f"
"Class C",2067,"BRAHMPUTRA RIVER AT SUALKUCHI, DIST. KAMRUP, ASSAM","BRAHMPUTRA RIVER",ASSAM,"26.160268","91.56994",blue,"#00f"
"NOT Class C",2068,"U/S OF KATHAKAL AT MATIJURI, DIST. HAILAKANDI, ASSAM","U/S OF KATHAKAL",ASSAM,"24.648536","92.608089",red,"#f03"
"NOT Class C",2069,"BRAHMPUTRA RIVER NEAR WATER INTAKE POINT AT KACHARIGHAT, PANBAZAR, GUWAHATI, ASSAM","BRAHMPUTRA RIVER NEAR WATER INTAKE POINT",ASSAM,"26.190372","91.745589",red,"#f03"
"NOT Class C",2070,"RIVER KIM AT SAHOL BRIDGE, OLPAD HASOT ROAD, DIST SURAT","RIVER KIM",GUJARAT,"21.461094","72.726327",red,"#f03"
"NOT Class C",2071,"RIVER TAPI AT ONGC BRIDGE AT SURAT, DIST SURAT","RIVER TAPI",GUJARAT,"21.148919","72.743684",red,"#f03"
"NOT Class C",2072,"RIVER BHOGAVO D/S OF SURENDRANAGAR","RIVER BHOGAVO",GUJARAT,"22.715528","71.672688",red,"#f03"
"NOT Class C",2073,"NARMADA MAIN CANAL, NR. VILLAGE LIMBADIA, DIST GANDHINAGAR",,GUJARAT,"23.134936","72.611525",red,"#f03"
"NOT Class C",2082,"TRIVENI SANGAM",,GUJARAT,"20.882324","70.414066",red,"#f03"
"Class C",2099,"RIVER NARMADA LALPUR, JABALPUR",,"MADHYA PRADESH","23.124913","79.774671",blue,"#00f"
"NOT Class C",21,"CHALIYAR AT CHUNGAPALLY, KERALA",CHALIYAR,KERALA,"11.247461","75.924269",red,"#f03"
"NOT Class C",2100,"GOUR RIVER BHOGA DOOR, JABALPUR",,"MADHYA PRADESH","23.117239","79.99781",red,"#f03"
"NOT Class C",2101,"KATNI RIVER NEAR NAGAR NIGAM",,"MADHYA PRADESH","23.899675","80.512005",red,"#f03"
"NOT Class C",2102,"RIVER SHIVNA AT RAMGHAT, MANDSAUR","RIVER SHIVNA","MADHYA PRADESH","24.05703","75.074378",red,"#f03"
"NOT Class C",2103,"RIVER JAMMER AT DHOLOWAD, RATLAM","RIVER JAMMER","MADHYA PRADESH","23.330385","75.034646",red,"#f03"
"NOT Class C",2104,"RIVER MALEI AT JAORA","RIVER MALEI","MADHYA PRADESH","23.639659","75.126136",red,"#f03"
"NOT Class C",2105,"RIVER CHILLAR AT SHAJAPUR","RIVER CHILLAR","MADHYA PRADESH","23.396067","76.291283",red,"#f03"
"NOT Class C",2106,"RIVER NARMADA AT NEMAWAR","RIVER NARMADA","MADHYA PRADESH","22.496589","76.980555",red,"#f03"
"Class C",2123,"NARMADA AT KORIGHAT HOSHANGABAD",NARMADA,"MADHYA PRADESH","22.761672","77.7185",blue,"#00f"
"NOT Class C",2127,"DENWA NEAR SARNI, ROAD BRIDGE",,"MADHYA PRADESH","22.124707","78.03034",red,"#f03"
"NOT Class C",2155,"PURNA RIVER A/C OF MORNA, NANDURA VILLAGE",,MAHARASHTRA,"20.88237","76.856618",red,"#f03"
"NOT Class C",2157,"GODAVARI RIVER AT LATUR WATER INTAKE NEAR PUMP HOUSE AT DHAMEGAON.","GODAVARI RIVER",MAHARASHTRA,"20.793322","78.139339",red,"#f03"
"NOT Class C",2158,"GODAVARI RIVER AT U/S OF PAITHAN AT PAITHAN INTAKE PUMP HOUSE AT JAYAKWADI","GODAVARI RIVER",MAHARASHTRA,"19.478228","75.384879",red,"#f03"
"NOT Class C",2159,"GODAVARI RIVER AT D/S OF PAITHAN AT PATHEGAON BRIDGE.","GODAVARI RIVER",MAHARASHTRA,"19.467269","75.397267",red,"#f03"
"NOT Class C",2160,"GODAVARI RIVER AT U/S OF AURANGABAD RESERVOIR, KAIGAON TOKKA NEAR KAIGAON BRIDGE.","GODAVARI RIVER",MAHARASHTRA,"19.63253","75.028605",red,"#f03"
"NOT Class C",2161,"GODAVARI RIVER AT JALNA INTAKE WATER PUMP HOUSE, SHAHABAD.","GODAVARI RIVER",MAHARASHTRA,"19.360024","75.709583",red,"#f03"
"NOT Class C",2162,"ULHAS RIVER ATJAMBHUL WATER WORKS.",,MAHARASHTRA,"19.215959","73.240641",red,"#f03"
"NOT Class C",2163,"PANCHAGANGA RIVER AT SHIROL NEAR SHIROL INTAKE WELL.","PANCHAGANGA RIVER",MAHARASHTRA,"16.721492","74.594819",red,"#f03"
"NOT Class C",2164,"VASHISTI RIVER AT U/S OF THREE M PAPER MILLS NEAR M/S MULTIFILMS PLASTIC PVT. LTD. AT KHERDI.","VASHISTI RIVER",MAHARASHTRA,"17.518025","73.553956",red,"#f03"
"NOT Class C",2168,"MITHI RIVER",,MAHARASHTRA,"19.051725","72.848403",red,"#f03"
"NOT Class C",2170,"KANHAN RIVER U/S OF M/S VIDHARBHA PAPER MILL, SINORA.","KANHAN RIVER",MAHARASHTRA,"21.206788","79.246193",red,"#f03"
"NOT Class C",2171,"KANHAN RIVER D/S OF M/S VIDHARBHA PAPER MILL, SINORA.","KANHAN RIVER",MAHARASHTRA,"21.209724","79.236711",red,"#f03"
"NOT Class C",2172,"WAINGANGA RIVER D/S OF ELLORA PAPER MILL.","WAINGANGA RIVER",MAHARASHTRA,"21.380853","79.745595",red,"#f03"
"NOT Class C",2173,"WAINGANGA RIVER U/S OF ELLORA PAPER MILL.","WAINGANGA RIVER",MAHARASHTRA,"21.380729","79.745477",red,"#f03"
"NOT Class C",2174,"WARDHA RIVER D/S OF ACC GHUGGUS.","WARDHA RIVER",MAHARASHTRA,"19.922574","79.113955",red,"#f03"
"NOT Class C",2175,"WAINGANGA U/S OF GAURAV PAPER MILLS, NEAR JACKWELL.",WAINGANGA,MAHARASHTRA,"20.609867","79.857681",red,"#f03"
"NOT Class C",2176,"WAINGANGA D/S OF GAURAV PAPER MILLS, NEAR JACKWELL.",WAINGANGA,MAHARASHTRA,"20.610126","79.858051",red,"#f03"
"NOT Class C",2177,"GODAVARI RIVER NEAR SOMESHWAR TEMPLE.",,MAHARASHTRA,"20.022812","73.728178",red,"#f03"
"NOT Class C",2180,"GODAVARI RIVER NEAR TAPOVAN.",,MAHARASHTRA,"19.987307","73.811028",red,"#f03"
"NOT Class C",2181,"GODAVARI RIVER AT KAPILA- GODAVARI CONFLUENCE POINT, TAPOVAN.","GODAVARI RIVER",MAHARASHTRA,"19.98729","73.811026",red,"#f03"
"NOT Class C",2182,"GODAVARI RIVER AT SAIKHEDA.","GODAVARI RIVER",MAHARASHTRA,"20.014695","74.007463",red,"#f03"
"NOT Class C",2183,"GODAVARI RIVER AT NANDUR- MADMESHWAR DAM.","GODAVARI RIVER",MAHARASHTRA,"20.012385","74.113719",red,"#f03"
"NOT Class C",2186,"VENNA RIVER AT VARYE, SATARA.","VENNA RIVER",MAHARASHTRA,"17.732719","73.991512",red,"#f03"
"NOT Class C",2187,"KRISHNA RIVER AT KSHETRA MAHULI.","KRISHNA RIVER",MAHARASHTRA,"17.688548","74.063324",red,"#f03"
"NOT Class C",2188,"KRISHNA RIVER AT KRISHNA-VENNA SANGAM AT MAHULI.","KRISHNA RIVER",MAHARASHTRA,"17.688252","74.063303",red,"#f03"
"NOT Class C",2189,"KOYNA RIVER AT KARAD.","KOYNA RIVER",MAHARASHTRA,"17.278589","74.183705",red,"#f03"
"NOT Class C",2190,"KRISHNA RIVER AT WAI.","KRISHNA RIVER",MAHARASHTRA,"17.949284","73.891316",red,"#f03"
"NOT Class C",2191,"MUTHA RIVER AT SANGAM BRIDGE NEAR GANAPATHY GHAT.","MUTHA RIVER",MAHARASHTRA,"18.532374","73.843415",red,"#f03"
"NOT Class C",2192,"MULA-MUTHA RIVER AT MUNDHAWA BRIDGE.","MULA-MUTHA RIVER",MAHARASHTRA,"18.535371","73.933306",red,"#f03"
"NOT Class C",2193,"MULA RIVER AT AUNDH BRIDGE, AUNDGAON.","MULA RIVER",MAHARASHTRA,"18.567737","73.811752",red,"#f03"
"NOT Class C",2194,"MULA RIVER AT HARRISON BRIDGE NEAR MULA- PAWANA SANGAM.","MULA RIVER",MAHARASHTRA,"18.5746","73.836055",red,"#f03"
"NOT Class C",2195,"NIRA RIVER AT D/S OF JUBILANT ORGANOSIS, PUNE.","NIRA RIVER",MAHARASHTRA,"18.103405","74.234805",red,"#f03"
"NOT Class C",2196,"PAWANA RIVER AT SANGAVIGAON, PUNE.","PAWANA RIVER",MAHARASHTRA,"18.670292","73.681639",red,"#f03"
"NOT Class C",2197,"INDRAYANI RIVER AT D/S OF ALANDIGAON, PUNE","INDRAYANI RIVER",MAHARASHTRA,"18.682216","73.900116",red,"#f03"
"NOT Class C",2198,"KUNDALIKA RIVER AT ARE KHURD ( SALINE ZONE )","KUNDALIKA RIVER",MAHARASHTRA,"18.43939","73.116341",red,"#f03"
"NOT Class C",2199,"SAVITRI RIVER AT OVALE VILLAGE.","SAVITRI RIVER",MAHARASHTRA,"18.074797","73.420905",red,"#f03"
"Class C",2229,"KUNDLI RIVER AT KUNDLI/ SAPAKHOWA, SADIA.","KUNDLI RIVER",ASSAM,"27.832518","95.672347",blue,"#00f"
"Class C",2230,"BURHIDIHING RIVER AT DULIAJAN (INTAKE POINT OF OIL INDIA LTD.)","BURHIDIHING RIVER",ASSAM,"27.320585","95.308605",blue,"#00f"
"Class C",2231,"DIKHOW RIVER AT DIKHOW BRIDGE SIVASAGAR","DIKHOW RIVER",ASSAM,"26.975605","94.630335",blue,"#00f"
"Class C",2232,"KOHORA RIVER AT N.H. CROSSING, KOHORA","KOHORA RIVER",ASSAM,"26.602234","93.403253",blue,"#00f"
"NOT Class C",2233,"BOGINADI NEAR BRIDGE NH-52, LAKHIMPUR",,ASSAM,"27.358877","94.181102",red,"#f03"
"NOT Class C",2234,"RANGA NADI D/S OF HYDEL PROJECT","RANGA NADI",ASSAM,"27.342717","93.816486",red,"#f03"
"Class C",2235,"PANCHNAI RIVER AT NH-52 CROSSING, ORANG","PANCHNAI RIVER",ASSAM,"26.699918","92.335305",blue,"#00f"
"NOT Class C",2236,"KAPILI RIVER AT DHARMTUL BRIDGE, NH-31, NAGAON","KAPILI RIVER",ASSAM,"26.165759","92.353897",red,"#f03"
"NOT Class C",2237,"KALONG RIVER AT U/S OF ANANDARAM DEKIAL PHUKAN BRIDGE, NAGAON","KALONG RIVER",ASSAM,"26.349206","92.68035",red,"#f03"
"NOT Class C",2238,"BEKI RIVER AT NH-37 CROSSING AT BARPETA ROAD","BEKI RIVER",ASSAM,"26.493169","90.917841",red,"#f03"
"NOT Class C",2239,"SANKOSH RIVER, DHUBRI",,ASSAM,"26.311379","89.831334",red,"#f03"
"NOT Class C",2240,"BARAK RIVER AT D/S OF SILCHAR","BARAK RIVER",ASSAM,"24.786736","92.813553",red,"#f03"
"NOT Class C",2241,"SONAI RIVER AT SONAI","SONAI RIVER",ASSAM,"24.735544","92.889269",red,"#f03"
"NOT Class C",2242,"KUSHIARA RIVER AT KARIMGANJ","KUSHIARA RIVER",ASSAM,"24.870906","92.376439",red,"#f03"
"NOT Class C",2270,"RIVER KHANDEPAR AT CODLI NEAR BRIDGE ,U/S OPA WATERWORKS,SANGUEM","RIVER KHANDEPAR",GOA,"15.410589","74.054325",red,"#f03"
"NOT Class C",2272,"RIVER KUSHAWATI NEAR BUND AT KEVONA,RIVON,SANGUEM","RIVER KUSHAWATI NEAR BUND",GOA,"15.232069","74.149461",red,"#f03"
"NOT Class C",2273,"RIVER SAL NEAR HOTEL LEELA MOBOR,CAVELOSSIM",,GOA,"15.156136","73.95205",red,"#f03"
"NOT Class C",2274,"RIVER MAPUSA ON CULVERT ON HIGHWAY MAPUSA-PANAJI",,GOA,"15.608275","73.836869",red,"#f03"
"NOT Class C",2275,"RIVER CHAPORA NEAR ALORNA FORT ,PERNEM",,GOA,"15.700331","73.904347",red,"#f03"
"NOT Class C",2276,"RIVER BICHOLIM VARAZAN NAGAR , BICHOLIM",,GOA,"15.590815","73.952907",red,"#f03"
"NOT Class C",2283,"YAMUNA AT HAMIRPUR",YAMUNA,"UTTAR PRADESH","25.956967","80.157122",red,"#f03"
"Class C",2284,"R NEYYAR AT ARUVIPURAM","R NEYYAR",KERALA,"8.428797","77.094478",blue,"#00f"
"Class C",2285,"R MAMOM AT MAMOM BRIDGE","R MAMOM",KERALA,"8.674267","76.821042",blue,"#00f"
"Class C",2286,"R AYROOR AT AYROOR BRIDGE","R AYROOR",KERALA,"9.979797","76.332922",blue,"#00f"
"Class C",2287,"R ITHIKKARA AT ITHIKKARA","R ITHIKKARA",KERALA,"9.979797","76.332922",blue,"#00f"
"Class C",2288,"R PALLICKAL AT NELLIMUKAL","R PALLICKAL",KERALA,"9.136389","76.713333",blue,"#00f"
"NOT Class C",2289,"R KARUVANNURR AT KARUVANNUR BRIDGE","R KARUVANNURR",KERALA,"10.391467","76.220428",red,"#f03"
"NOT Class C",2290,"R PUZHACKAL AT PUZHACKAL BRIDGE","R PUZHACKAL",KERALA,"10.542736","76.178764",red,"#f03"
"NOT Class C",2291,"R KEECHERI AT VADAKKANCHERY BRIDGE","R KEECHERI",KERALA,"10.600406","76.48965",red,"#f03"
"NOT Class C",2292,"R THIRUR AT THALAKKADATHUR BRIDGE","R THIRUR",KERALA,"10.920086","75.920264",red,"#f03"
"Class C",2293,"R KADALUNDI AT HAJIRAPPALLY","R KADALUNDI",KERALA,"11.051336","76.061343",blue,"#00f"
"NOT Class C",2294,"R KALLAI AT KALLAI BRIDGE","R KALLAI",KERALA,"11.237519","75.786919",red,"#f03"
"NOT Class C",2295,"R CORAPUZHA AT KANAYANKODE","R CORAPUZHA",KERALA,"11.444394","75.728494",red,"#f03"
"NOT Class C",2296,"R THALLASSERY AT PATHIPPALAM","R THALLASSERY",KERALA,"11.762211","75.501347",red,"#f03"
"Class C",2297,"R ANCHARAKANDY AT MERUVAMBA","R ANCHARAKANDY",KERALA,"11.873197","75.572064",blue,"#00f"
"NOT Class C",2298,"R KUPPAM AT RAYAROM","R KUPPAM",KERALA,"12.209567","75.440792",red,"#f03"
"NOT Class C",2299,"R RAMAPURAM AT RAMAPURAM BRIDGE","R RAMAPURAM",KERALA,"12.046575","75.265186",red,"#f03"
"Class C",2300,"R PERUVAMBA AT CHANDAPPURA","R PERUVAMBA",KERALA,"10.902681","76.406647",blue,"#00f"
"NOT Class C",2301,"R KAVVAI AT KUTTIYOL PALAM","R KAVVAI",KERALA,"12.11535","75.170739",red,"#f03"
"NOT Class C",2302,"R NEELASWARAM AT NAMBIARKAL DAM","R NEELASWARAM",KERALA,"12.258286","75.118392",red,"#f03"
"NOT Class C",2303,"R PULLUR AT PULLUR BR.","R PULLUR",KERALA,"10.350594","76.251578",red,"#f03"
"NOT Class C",2304,"R MOGRAL AT MOGRAL BR.","R MOGRAL",KERALA,"12.560308","74.955942",red,"#f03"
"NOT Class C",2306,"R UPPALA AT UPPALA BR.","R UPPALA",KERALA,"12.694753","74.904556",red,"#f03"
"NOT Class C",2307,"R MANJESWAR AT BAJRAKKARA BR.","R MANJESWAR",KERALA,"12.71245","74.894392",red,"#f03"
"NOT Class C",2319,"R ANCHARAKANDY AT MERUVAMBA","R ANCHARAKANDY",KERALA,"11.872833","75.572092",red,"#f03"
"Class C",2326,"R KORAYAR AT KANJIKODE","R KORAYAR",KERALA,"10.796397","76.753178",blue,"#00f"
"Class C",2331,"R BHARATHAPUZHA AT KUTTIPPURAM","R BHARATHAPUZHA",KERALA,"10.839136","76.036128",blue,"#00f"
"Class C",2332,"R BHARATHAPUZHA AT PATTAMBI","R BHARATHAPUZHA",KERALA,"10.799658","76.185131",blue,"#00f"
"Class C",2333,"RIVER PERIYAR AT MUPPATHADAM","RIVER PERIYAR",KERALA,"10.083386","76.319817",blue,"#00f"
"NOT Class C",2334,"RIVER PERIYAR AT PATHALAM","RIVER PERIYAR",KERALA,"10.080819","76.317908",red,"#f03"
"NOT Class C",2335,"R PERIYAR AT KALAMASSERY","R PERIYAR",KERALA,"10.063225","76.311872",red,"#f03"
"NOT Class C",2336,"R PERIYAR AT PURAPPALLIKAVU","R PERIYAR",KERALA,"10.220439","76.217439",red,"#f03"
"NOT Class C",2337,"R KADAMBAYAR AT BRAHMAPURAM","R KADAMBAYAR",KERALA,"10.005208","76.369179",red,"#f03"
"NOT Class C",2339,"RIVER MUSI AT NAGOLE,RANGAREDDY","RIVER MUSI","ANDHRA PRADESH","17.382722","78.557775",red,"#f03"
"NOT Class C",2349,"RIVER NAKKAVAGU, BACHUGUDEM,MEDAK",,"ANDHRA PRADESH","18.351114","78.73601",red,"#f03"
"NOT Class C",2350,"RIVER HUNDRI, JOHARPUR(V), NEAR TEMPLE, KURNOOL",,"ANDHRA PRADESH","15.819061","78.056866",red,"#f03"
"Class C",2351,"RIVER KUNDU, NANDYAL, NEAR OVER BDG., KURNOOL",,"ANDHRA PRADESH","15.49","78.4748",blue,"#00f"
"Class C",2352,"RIVER VAMSHADHARA, KALINGAPATNAM,VIZIANAGARAM",,"ANDHRA PRADESH","18.343003","84.124328",blue,"#00f"
"NOT Class C",2356,"GODAVARI, D/S OF RAMANUGUNDAM,","GODAVARI,","ANDHRA PRADESH","18.727075","79.620161",red,"#f03"
"Class C",2360,"GODAVARI AT BASARA, ADILABAD",GODAVARI,"ANDHRA PRADESH","18.868297","77.962194",blue,"#00f"
"NOT Class C",2361,"GODAVARI AT MANCHERIAL, NEAR RLY BDG B/C OF RALLAVAGU",GODAVARI,"ANDHRA PRADESH","18.838133","79.441697",red,"#f03"
"NOT Class C",2362,"GODAVARI AT RAMAGUNDAM D/S, NEAR FCI INTAKE WELL, KARIMNAGAR",GODAVARI,"ANDHRA PRADESH","18.819131","79.468017",red,"#f03"
"NOT Class C",2363,"GODAVARI AT GODAVARIKHANI, NEAR BATHING GHAT, KARIMNAGAR",GODAVARI,"ANDHRA PRADESH","18.781656","79.513558",red,"#f03"
"NOT Class C",2364,"GODAVARI AT RAMAGUNDAM U/S , KARIMNAGAR",GODAVARI,"ANDHRA PRADESH","18.786369","79.521028",red,"#f03"
"NOT Class C",2365,"GODAVARI AT KAMALPUR U/S M/S AP RAYONS LTD. INTAKE WELL, WARANGAL",GODAVARI,"ANDHRA PRADESH","18.288014","80.492375",red,"#f03"
"NOT Class C",2366,"GODAVARI AT KAMALPUR D/S AT M/S. AP RAYONS LTD. DISCHARGE POINT, WARANGAL",GODAVARI,"ANDHRA PRADESH","18.263814","80.538533",red,"#f03"
"Class C",2367,"GODAVARI AT BHADRACHALAM U/S BATHING GHAT, KHAMMAM",GODAVARI,"ANDHRA PRADESH","17.674897","80.883094",blue,"#00f"
"NOT Class C",2368,"GODAVARI AT BHADRACHALAM D/S BATHING GHAT, KHAMMAM",GODAVARI,"ANDHRA PRADESH","17.655586","80.876653",red,"#f03"
"Class C",2369,"GODAVARI AT BURGAMPAHAD, KHAMMAM",GODAVARI,"ANDHRA PRADESH","17.648483","80.8775",blue,"#00f"
"Class C",2370,"GODAVARI AT RAJAMUNDRY U/S OF NALLA CHANNEL",GODAVARI,"ANDHRA PRADESH","17.023186","81.768181",blue,"#00f"
"Class C",2371,"GODAVARI AT RAJAMUNDRY D/S OF NALLA CHANNEL",GODAVARI,"ANDHRA PRADESH","16.958989","81.78175",blue,"#00f"
"Class C",2372,"KINNERASANI A/C OF KTPS ASH POND EFFLUENTS, KHAMMAM",,"ANDHRA PRADESH","17.224489","80.127061",blue,"#00f"
"NOT Class C",2373,"SABARI AT KUNAVARAM, KHAMMAM",SABARI,"ANDHRA PRADESH","17.616333","81.286295",red,"#f03"
"Class C",2374,"RIVER MANJEERA AT GOWDICHARLA B/C WITH NAKKAVAGU","RIVER MANJEERA","ANDHRA PRADESH","17.64797","78.143382",blue,"#00f"
"Class C",2375,"RIVER MANJEERA AT GOWDICHARLA A/C WITH NAKKAVAGU","RIVER MANJEERA","ANDHRA PRADESH","17.650778","78.134958",blue,"#00f"
"NOT Class C",2387,"SUBAREKHA AT GHATISLA ROAD BRIDGE",SUBAREKHA,JHARKHAND,"22.592839","86.446667",red,"#f03"
"NOT Class C",2399,"SUBARNAREKHA AT CHANDIL DAM",SUBARNAREKHA,JHARKHAND,"22.97194","86.023097",red,"#f03"
"NOT Class C",24,"SUBARNAREKHA AT JAMSHEDPUR, JHARKHAND",SUBARNAREKHA,JHARKHAND,"22.761694","86.317722",red,"#f03"
"NOT Class C",2403,"BHEDEN RIVER BEFORE CONFLUENCE WITH IB RIVER",,ORISSA,"21.788747","83.977666",red,"#f03"
"Class C",2404,"POWER CHANNEL D/S NEAR BURLA","POWER CHANNEL",ORISSA,"21.489937","83.889449",blue,"#00f"
"Class C",2405,"SAMBHALPUR FDS AT HUMA","SAMBHALPUR FDS",ORISSA,"21.466747","83.980098",blue,"#00f"
"NOT Class C",2406,"MUNDALI(WATER INTAKE POINT OF BHUBANESWAR CITY",,ORISSA,"20.470289","85.764033",red,"#f03"
"NOT Class C",2407,"PARADEEP U/S (BEFORE INDUSTRIAL ACTIVITY AT PARADEEP)","PARADEEP U/S (BEFORE INDUSTRIAL ACTIVITY",ORISSA,"20.332506","86.573781",red,"#f03"
"NOT Class C",2408,TEL,,ORISSA,"20.82655","83.910444",red,"#f03"
"NOT Class C",2409,"CUTTACK FDS (SERUA) AT SANKHATRASA","CUTTACK FDS (SERUA)",ORISSA,"20.395008","85.907675",red,"#f03"
"NOT Class C",2410,"DAYA AT BHUBANESWAR FU/S",DAYA,ORISSA,"20.32735","85.861197",red,"#f03"
"NOT Class C",2411,"DAYA AT BHUBANESWAR FD/S ( 2 KM AFTER CONFLUENCE OF GANGUA NALLAH WITH RIVER DAYA)",DAYA,ORISSA,"20.139142","85.758142",red,"#f03"
"NOT Class C",2412,"SANKHA U/S ( D/S OF MANDIRA DAM)","SANKHA U/S (",ORISSA,"22.249467","84.749906",red,"#f03"
"NOT Class C",2413,"KOEL U/S (AFTER CONFLUENCE OF RIVER KARO)",KOEL,ORISSA,"22.275492","84.918092",red,"#f03"
"Class C",2415,"TALCHER FU/S (INTAKE WELL OF MCL, TALCHER)",,ORISSA,"20.996256","85.248842",blue,"#00f"
"NOT Class C",2416,"TALCHER FD/S",,ORISSA,"20.825086","85.316236",red,"#f03"
"NOT Class C",2417,"DHENKANAL D/S, DHENKANAL TOWN",,ORISSA,"20.746464","85.5563",red,"#f03"
"NOT Class C",2418,"KABATABANDHA (BEFORE IMPACT OF INDUSTRIAL ACTIVITY IN KALINGANAGAR AREA)",,ORISSA,"20.889011","86.010639",red,"#f03"
"NOT Class C",2419,"KHANDITARA (D/S OF INDUSTRIAL ACTIVITIES AT KALINGA NAGAR)","KHANDITARA (D/S OF INDUSTRIAL ACTIVITIES",ORISSA,"20.853192","86.200283",red,"#f03"
"NOT Class C",2420,AUL,,ORISSA,"20.694244","86.652433",red,"#f03"
"NOT Class C",2421,"KUSEI BEFORE JOINING WITH BAITARANI RIVER AT ANANDPUR","KUSEI BEFORE JOINING WITH BAITARANI RIVER",ORISSA,"21.325488","86.064444",red,"#f03"
"NOT Class C",2422,"NAGAVALLI AT PENTA U/S, JAYKAYPUR TOWN",NAGAVALLI,ORISSA,"19.255567","83.417758",red,"#f03"
"NOT Class C",2423,"BUDHABALANGA, D/S OF BARIPADA TOWN","BUDHABALANGA,",ORISSA,"21.924217","86.717897",red,"#f03"
"NOT Class C",2424,"BUDHABALANGA AT BALASORE D/S",BUDHABALANGA,ORISSA,"21.486397","86.993447",red,"#f03"
"NOT Class C",2425,"RIVER KERANDI(INTAKE WELL OF NALCO REFINARY, HAL, SUNABEDA)",,ORISSA,"18.75455","82.816231",red,"#f03"
"NOT Class C",2426,"VANSADHARA AT MUNIGUDA (D/S OF M/S VEDANTAALUMINA PROJECT)",VANSADHARA,ORISSA,"19.61713","83.550364",red,"#f03"
"NOT Class C",2427,"VANSADHARA ATGUNUPUR (INTERSTATE BOUNDRY)",,ORISSA,"19.093042","83.81295",red,"#f03"
"NOT Class C",2442,"GAUTAMI-GODAVARI RIVER",,PONDICHERRY,"16.72558","82.202078",red,"#f03"
"NOT Class C",2443,"GAUTAMI-GODAVARI RIVER",,PONDICHERRY,"16.714041","82.263433",red,"#f03"
"NOT Class C",2444,"CORINGA RIVER",,PONDICHERRY,"16.753156","82.223757",red,"#f03"
"NOT Class C",2445,"MAHE RIVER",,PONDICHERRY,"11.706491","75.534127",red,"#f03"
"NOT Class C",2482,"VARUNA AT RAMESHWAR, VARANASI",VARUNA,"UTTAR PRADESH","25.386717","82.852628",red,"#f03"
"NOT Class C",2483,"VARUNA B/C WITH RIVER GANGA AT VARANASI","VARUNA B/C WITH RIVER GANGA","UTTAR PRADESH","25.332956","83.043393",red,"#f03"
"NOT Class C",2484,"SAI AT JALALPUR, JAUNPUR",SAI,"UTTAR PRADESH","25.629922","82.756208",red,"#f03"
"NOT Class C",2485,"GANGA U/S, VINDHYACHAL, MIRZAPUR",,"UTTAR PRADESH","25.244031","82.418272",red,"#f03"
"NOT Class C",2486,"GANGA D/S, MIRZAPUR",,"UTTAR PRADESH","25.177058","82.602225",red,"#f03"
"NOT Class C",2487,"GANGA AT KADAGHAT, ALLAHABAD",GANGA,"UTTAR PRADESH","25.443124","81.887148",red,"#f03"
"NOT Class C",2488,"GANGA U/S, ANOOPSHAHAR",,"UTTAR PRADESH","28.364396","78.270269",red,"#f03"
"NOT Class C",2489,"GANGA D/S, ANOOPSHAHAR",,"UTTAR PRADESH","28.274208","78.324338",red,"#f03"
"NOT Class C",2490,"GANGA AT KACHHLA GHAT, ALIGARH",GANGA,"UTTAR PRADESH","27.927803","78.866289",red,"#f03"
"NOT Class C",2491,"RAPTI AT RAJGHAT, GORAKHPUR",RAPTI,"UTTAR PRADESH","26.733174","83.347894",red,"#f03"
"NOT Class C",2492,"GHAGHRA AT BARHALGANJ, GORAKHPUR",GHAGHRA,"UTTAR PRADESH","26.278524","83.513885",red,"#f03"
"NOT Class C",2493,"YAMUNA AT SHAHPUR",YAMUNA,"UTTAR PRADESH","29.604121","77.109833",red,"#f03"
"NOT Class C",2494,"YAMUNA AT VISHRAMGHAT, MATHURA",YAMUNA,"UTTAR PRADESH","27.504755","77.686524",red,"#f03"
"NOT Class C",2495,"YAMUNA AT KESIGHAT, VRINDAVAN",YAMUNA,"UTTAR PRADESH","27.586087","77.696364",red,"#f03"
"NOT Class C",2497,"KALI EAST AT KHARKHODA-PARIKSHIT GARH ROAD, VILL. KOL, MEERUT","KALI EAST","UTTAR PRADESH","28.980857","77.790428",red,"#f03"
"NOT Class C",2498,"GANGA AT KALA KANKAR, RAEBARELI",GANGA,"UTTAR PRADESH","25.774293","81.382673",red,"#f03"
"Class C",25,"KRISHNA AT VIJAYWADA, A.P.",KRISHNA,"ANDHRA PRADESH","16.492476","80.640839",blue,"#00f"
"NOT Class C",2506,"TRIBENI ON GANGA, NEAR BURNING GHAT",,"WEST BENGAL","22.984402","88.40197",red,"#f03"
"NOT Class C",2507,"D/S OF KANSI AT MIDNAPORE, NEAR NEW HANUMAN MANDIR, GANDHIGHAT","D/S OF KANSI","WEST BENGAL","22.40088","87.341394",red,"#f03"
"NOT Class C",2508,"D/S OF SILABATI AT GHATAL,","D/S OF SILABATI","WEST BENGAL","22.666078","87.744922",red,"#f03"
"NOT Class C",2509,"D/S OF RUPNARAYAN AT KOLAGHAT, NEAR KOLAGHAT RAIL BRIDGE NO.3","D/S OF RUPNARAYAN","WEST BENGAL","22.437711","87.880747",red,"#f03"
"NOT Class C",2511,"NABADIP ON GANGA,GHOSHPARA NEAR MONIPURGHAT",,"WEST BENGAL","23.386728","88.364884",red,"#f03"
"NOT Class C",2514,"JALANGI, D/S OF KRISHNA NAGAR","JALANGI,","WEST BENGAL","23.413356","88.471892",red,"#f03"
"NOT Class C",2517,"MATHA BHANGA, GOBINDAPUR",,"WEST BENGAL","26.383597","89.195381",red,"#f03"
"NOT Class C",2518,"CHURNI, MAJHADIA",,"WEST BENGAL","23.197644","88.573014",red,"#f03"
"NOT Class C",2523,"KAROLA, D/S OF JALPAIGURI, NEAR MIN BHAWAN","KAROLA,","WEST BENGAL","26.537633","88.707053",red,"#f03"
"NOT Class C",2524,"KALJANI D/S OF ALIPURDWAR, MUNICIPALITY DISCHARGE POINT",KALJANI,"WEST BENGAL","26.444936","89.546458",red,"#f03"
"NOT Class C",2525,"MAHANANDA D/S, RAMGHAT",,"WEST BENGAL","26.806806","88.409255",red,"#f03"
"NOT Class C",2527,"DAMODAR AT WATER INTAKE POINT FOR BURDWAN TOWN",DAMODAR,"WEST BENGAL","23.206144","87.850831",red,"#f03"
"NOT Class C",2531,"U/S OF TARAPITH ON RIVER DWARKA AT SADHAK BAMDEB GHAT","U/S OF TARAPITH ON RIVER DWARKA","WEST BENGAL","24.11604","87.797555",red,"#f03"
"NOT Class C",2532,"D/S OF TARAPITH ON RIVER DWARKA, SATIGHAT",,"WEST BENGAL","24.111261","87.794355",red,"#f03"
"NOT Class C",2534,"WATER INTAKE POINT FOR SURI TOWN ON RIVER MAYURAKSHI",,"WEST BENGAL","23.944125","87.5379",red,"#f03"
"NOT Class C",2541,"WATER INTAKE POINT FOR BANKURA TOWN ON RIVER DWARAKESHWAR",,"WEST BENGAL","23.213568","87.076517",red,"#f03"
"NOT Class C",2550,"D/S OF VINDYADHARI RIVER AT MALANCHA BURNING GHAT","D/S OF VINDYADHARI RIVER","WEST BENGAL","22.507942","88.775997",red,"#f03"
"NOT Class C",2551,"GANGA AT BUXAR, RAMREKHAGHAT",GANGA,BIHAR,"25.576142","83.970428",red,"#f03"
"NOT Class C",2552,"GANGA DARBHANGA GHAT AT PATNA","GANGA DARBHANGA GHAT",BIHAR,"25.622179","85.172816",red,"#f03"
"NOT Class C",2553,"GANGA AT FATUHA",GANGA,BIHAR,"25.511611","85.307417",red,"#f03"
"Class C",2554,"GANGA AT SULTANGANJ, BHAGALPUR",GANGA,BIHAR,"25.257511","86.747053",blue,"#00f"
"NOT Class C",2555,"GANGA AT PUNPUN, PATNA",GANGA,BIHAR,"25.627333","85.155472",red,"#f03"
"Class C",2556,"GANGA AT INDRAPURI, DEHRI ON SONE",GANGA,BIHAR,"24.902403","84.2074",blue,"#00f"
"NOT Class C",2558,"HARBORA RIVER AT NARKATIAGANJ","HARBORA RIVER",BIHAR,"27.105529","84.454541",red,"#f03"
"NOT Class C",2559,"RAM REKHA RIVER AT HARINAGAR","RAM REKHA RIVER",BIHAR,"27.170083","84.322471",red,"#f03"
"NOT Class C",2560,"D/S DAHA RIVER AT SASAMUSA","D/S DAHA RIVER",BIHAR,"26.520035","84.357095",red,"#f03"
"NOT Class C",2561,"DAHA RIVER AT ITWA BRIDGE, SIWAN","DAHA RIVER",BIHAR,"26.223497","84.347097",red,"#f03"
"Class C",2562,"BURHI GANDAK AT AKHARAGHAT, MUZAFFARPUR","BURHI GANDAK",BIHAR,"26.138571","85.388808",blue,"#00f"
"NOT Class C",2563,"MANUSMAR RIVER AT RIGA, SITAMARHI","MANUSMAR RIVER",BIHAR,"26.576389","85.317222",red,"#f03"
"Class C",2564,"GANGA AT THE CONFLUENCE OF SONE RIVER DORIGANJ, CHAPRA",GANGA,BIHAR,"25.708441","84.889727",blue,"#00f"
"Class C",2565,"KOSHI RIVER AT KURSHELA AT KATIHAR","KOSHI RIVER",BIHAR,"25.42082","87.236262",blue,"#00f"
"Class C",2566,"KOSHI RIVER AT MADHEPURA","KOSHI RIVER",BIHAR,"25.930352","86.801274",blue,"#00f"
"Class C",2567,"KAMALA RIVER AT BENIPATTI (MADHUBANI)","KAMALA RIVER",BIHAR,"26.269758","86.268875",blue,"#00f"
"Class C",2568,"GANDAK AT REWAGHAT, MUJAFFARPUR",GANDAK,BIHAR,"25.988349","85.045545",blue,"#00f"
"Class C",2569,"KAMALA RIVER AT DARBHANGA","KAMALA RIVER",BIHAR,"26.135844","86.333137",blue,"#00f"
"Class C",2570,"GANDAK ATSAMASTIPUR ROAD BRIDGE",,BIHAR,"25.867123","85.784927",blue,"#00f"
"Class C",2575,"SIKRAHNA RIVER AT LAL PARSE, BITTIAH","SIKRAHNA RIVER",BIHAR,"26.560646","85.052409",blue,"#00f"
"Class C",2601,"BEAS AT D/S MANALI",BEAS,"HIMACHAL PRADESH","32.263247","77.185664",blue,"#00f"
"Class C",2602,"BEAS AT U/S KULLU",BEAS,"HIMACHAL PRADESH","31.958136","77.115783",blue,"#00f"
"Class C",2603,"BEAS AT D/S PANDOH DAM",BEAS,"HIMACHAL PRADESH","31.686472","77.045619",blue,"#00f"
"NOT Class C",2604,"BEAS AT D/S JAISINGHPUR",BEAS,"HIMACHAL PRADESH","31.880753","76.614514",red,"#f03"
"Class C",2605,"PARVATI AT U/S MANIKARAN",PARVATI,"HIMACHAL PRADESH","32.027531","77.348536",blue,"#00f"
"Class C",2606,"PARVATI AT D/S MANIKARAN",PARVATI,"HIMACHAL PRADESH","32.019789","77.331117",blue,"#00f"
"Class C",2607,"SUKETI KHAD AT D/S MANDI","SUKETI KHAD","HIMACHAL PRADESH","31.756389","76.936111",blue,"#00f"
"NOT Class C",2608,"BINWA AT D/S PAPROLA/BAIJNATH",BINWA,"HIMACHAL PRADESH","32.052972","76.649286",red,"#f03"
"NOT Class C",2609,"NEUGAL AT D/S THURAL",NEUGAL,"HIMACHAL PRADESH","31.908625","76.466739",red,"#f03"
"Class C",2610,"SPITI AT KHAB",SPITI,"HIMACHAL PRADESH","31.806619","78.641953",blue,"#00f"
"Class C",2611,"SATLUJ AT KHAB",SATLUJ,"HIMACHAL PRADESH","31.798494","78.639769",blue,"#00f"
"Class C",2612,"BASPA AT U/S RESERVOIR BASPA PROJECT",BASPA,"HIMACHAL PRADESH","31.389297","78.353714",blue,"#00f"
"NOT Class C",2613,"RAVI AT D/S OF CHAMBA TOWN",RAVI,"HIMACHAL PRADESH","32.57045","76.119792",red,"#f03"
"NOT Class C",2614,"RAVI AT AT CHAMERA RESERVOIR",RAVI,"HIMACHAL PRADESH","32.6083","76.013308",red,"#f03"
"NOT Class C",2615,"RAVI AT AT D/S CHAMERA III HEP",RAVI,"HIMACHAL PRADESH","32.596661","75.992383",red,"#f03"
"NOT Class C",2616,"SIUEL AT D/S SURGANI",SIUEL,"HIMACHAL PRADESH","32.721486","76.089586",red,"#f03"
"Class C",2624,"MARKANDA U/S KALA AMB",MARKANDA,"HIMACHAL PRADESH","30.503186","77.218603",blue,"#00f"
"NOT Class C",2625,"MARKANDA D/S KALA AMB/ BOUNDARY OF HARYANA",MARKANDA,"HIMACHAL PRADESH","30.513728","77.244136",red,"#f03"
"NOT Class C",2651,"AMBA RIVER AT D/S OF WAKEN BRIDGE-U/S OF JS PETROCHEMICALS, WAKENPHATA, ROHA","AMBA RIVER",MAHARASHTRA,"18.519528","73.158106",red,"#f03"
"NOT Class C",2653,"BHATSA RIVER AT D/S OF LIBERTY OIL MILLS, SATNEL, SHAHAPUR, THANE","BHATSA RIVER",MAHARASHTRA,"19.451403","73.328911",red,"#f03"
"NOT Class C",2654,"BHATSA RIVER AT U/S OF LIBERTY OIL MILLS, SATNEL, SHAHAPUR, THANE","BHATSA RIVER",MAHARASHTRA,"19.451282","73.328857",red,"#f03"
"NOT Class C",2655,"BHIMA RIVER AT KOREGAON NEAR KOREGAON BRIDGE, SHIRUR, PUNE","BHIMA RIVER",MAHARASHTRA,"18.645719","74.056442",red,"#f03"
"NOT Class C",2656,"BHIMA RIVER-BACKWATER OF UJANI DAM NEAR RAW WATER PUMP HOUSE, KUMBARGAON, INDAPUR, PUNE",,MAHARASHTRA,"18.202061","75.088989",red,"#f03"
"NOT Class C",2657,"BINDUSARA RIVER AT BEED NEAR INTAKE WATER PUMP HOUSE AT DAM, PALIGAON, BEED","BINDUSARA RIVER",MAHARASHTRA,"18.916511","75.743889",red,"#f03"
"NOT Class C",2658,"BORI RIVER D/S OF AMALNER, JALGAON","BORI RIVER",MAHARASHTRA,"21.039758","75.067178",red,"#f03"
"NOT Class C",2659,"BURAI RIVER BEFORE CONFLUECE TO TAPI RIVER, MUKUDAS, DHULE",,MAHARASHTRA,"21.275792","74.751714",red,"#f03"
"NOT Class C",2660,"DARNA RIVER AT CHEHEDI PUMPING STATION, NASHIK.","DARNA RIVER",MAHARASHTRA,"19.932352","73.856413",red,"#f03"
"NOT Class C",2661,"DARNA RIVER AT ASWALI ( DARNA DAM), IGATPURI, NASHIK","DARNA RIVER",MAHARASHTRA,"19.761988","73.737187",red,"#f03"
"NOT Class C",2662,"DARNA RIVER AT MES SITE PUMPING STATION, BHAGUR, NASHIK.","DARNA RIVER",MAHARASHTRA,"19.870494","73.829919",red,"#f03"
"NOT Class C",2663,"DARNA RIVER AT BHAGUR PUMPING STATION NEAR PANDHURLI BRIDGE, BHAGUR, NASHIK.","DARNA RIVER",MAHARASHTRA,"19.872772","73.834011",red,"#f03"
"NOT Class C",2664,"DARNA RIVER AT SANSARI, NASHIK.","DARNA RIVER",MAHARASHTRA,"19.900366","73.838095",red,"#f03"
"NOT Class C",2665,"GHOD RIVER AT SHIRUR, PUNE.","GHOD RIVER",MAHARASHTRA,"18.831722","74.387839",red,"#f03"
"NOT Class C",2666,"GOMAI RIVER, D/S. OF SHAHADA, DHULE.",,MAHARASHTRA,"21.545645","74.468325",red,"#f03"
"NOT Class C",2667,"HIWARA RIVER, D/S OF PACHORA., JALGAON","HIWARA RIVER,",MAHARASHTRA,"20.6589","75.349177",red,"#f03"
"NOT Class C",2668,"INDRAYANI RIVER AT D/S OF MOSHIGAON, HAWELI, PUNE","INDRAYANI RIVER",MAHARASHTRA,"18.677697","73.851206",red,"#f03"
"NOT Class C",2669,"INDRAYANI RIVER AT U/S OF MOSHIGAON, HAWELI, PUNE.","INDRAYANI RIVER",MAHARASHTRA,"18.677486","73.851233",red,"#f03"
"Class C",2670,"KAN RIVER, NEAR SAKRI WATER WORKS, SAKRI, DHULE.",,MAHARASHTRA,"20.992627","74.314042",blue,"#00f"
"NOT Class C",2671,"KUNDALIKA RIVER NEAR SALAV BRIDGE (SALINA ZONE), SALAV, ROHA, RAIGAD",,MAHARASHTRA,"18.540021","72.930604",red,"#f03"
"NOT Class C",2672,"KUNDALIKA RIVER AT DHATAV AT JACKWELL (DRINKING WATER PUMPING STATION-SWEET ZONE), ROHA","KUNDALIKA RIVER",MAHARASHTRA,"18.417164","73.161162",red,"#f03"
"NOT Class C",2673,"MANJEERA RIVER AT D/S OF LATUR, NEAR LATUR- NANDED BRIDGE AT BHATKHEDA, LATUR.","MANJEERA RIVER",MAHARASHTRA,"18.429431","76.668723",red,"#f03"
"NOT Class C",2674,"MOR RIVER, NEAR PADALSHE VILLAGE, JALGAON.",,MAHARASHTRA,"21.105797","75.798376",red,"#f03"
"NOT Class C",2675,"MORNA RIVER AT D/S OF RAILWAY BRIDGE AT AKOLA.","MORNA RIVER",MAHARASHTRA,"20.714779","76.957569",red,"#f03"
"NOT Class C",2676,"MUCHKUNDI RIVER AT WAKED,RATNAGIRI, NEAR M/S ASAHI INDIA GLASS LTD., LANJA, RATNAGIRI.","MUCHKUNDI RIVER",MAHARASHTRA,"16.773972","73.582761",red,"#f03"
"NOT Class C",2677,"MULA-MUTHA RIVER AT D/S OF THEUR, HAWELI, PUNE","MULA-MUTHA RIVER",MAHARASHTRA,"18.521663","74.050564",red,"#f03"
"NOT Class C",2678,"MUTHA RIVER NEAR VEER SAVARKAR BHAVAN, PUNE.",,MAHARASHTRA,"18.521303","73.850578",red,"#f03"
"NOT Class C",2680,"MUTHA RIVER AT KHADAKVASLA DAM, KHADAKVASLA, HAWELI, PUNE.","MUTHA RIVER",MAHARASHTRA,"18.430149","73.754941",red,"#f03"
"NOT Class C",2681,"NIRA RIVER AT SANGAVI, PHALTAN, SATARA","NIRA RIVER",MAHARASHTRA,"18.055999","74.483941",red,"#f03"
"NOT Class C",2682,"NIRA RIVER AT U/S OF JUBILANT ORGANOSIS, BARAMATI, PUNE.","NIRA RIVER",MAHARASHTRA,"18.097756","74.213675",red,"#f03"
"NOT Class C",2683,"NIRA RIVER AT SHINDEWADI, SHIRVAL, KHANDALA, SATARA","NIRA RIVER",MAHARASHTRA,"18.147434","73.977285",red,"#f03"
"Class C",2684,"PANZARA RIVER, NEAR PANZARAKAN SSK LTD., DHULE.",,MAHARASHTRA,"21.11316","74.885213",blue,"#00f"
"NOT Class C",2685,"PATALGANGA RIVER AT D/S OF KHARPADA BRIDGE, RAIGAD.","PATALGANGA RIVER",MAHARASHTRA,"18.839498","73.093677",red,"#f03"
"NOT Class C",2686,"PATALGANGA RIVER AT VYAL PUMP HOUSE , KHALAPUR, RAIGAD.","PATALGANGA RIVER",MAHARASHTRA,"18.830846","73.284151",red,"#f03"
"NOT Class C",2687,"PATALGANGA RIVER AT KHALAPUR PUMPING STATION, KHALAPUR, RAIGAD.","PATALGANGA RIVER",MAHARASHTRA,"18.824941","73.284358",red,"#f03"
"NOT Class C",2688,"PATALGANGA RIVER AT SAVROLI BRIDGE, KHALAPUR, RAIGAD.","PATALGANGA RIVER",MAHARASHTRA,"18.864821","73.203322",red,"#f03"
"NOT Class C",2689,"PATALGANGA RIVER AT GAGANGIRI MAHARAJ TEMPLE, KHOPOLI, RAIGAD.","PATALGANGA RIVER",MAHARASHTRA,"18.786149","73.353487",red,"#f03"
"NOT Class C",2690,"PAWNA RIVER AT KASARWADI, HAWELI, PUNE.","PAWNA RIVER",MAHARASHTRA,"18.60677","73.821067",red,"#f03"
"NOT Class C",2691,"PAWNA RIVER AT DAPODI BRIDGE, AT PAWANA- MULLA SANGAM,PUNE.","PAWNA RIVER",MAHARASHTRA,"18.582775","73.826155",red,"#f03"
"NOT Class C",2692,"PAWNA RIVER AT RAVET WEIR, PUNE.","PAWNA RIVER",MAHARASHTRA,"18.660929","73.731891",red,"#f03"
"NOT Class C",2693,"PAWNA RIVER AT CHINCHWADGAON, PUNE.","PAWNA RIVER",MAHARASHTRA,"18.641184","73.792731",red,"#f03"
"NOT Class C",2694,"PAWNA RIVER AT PIMPRIGAON, PUNE.","PAWNA RIVER",MAHARASHTRA,"18.607788","73.797949",red,"#f03"
"NOT Class C",2695,"PEDHI RIVER NEAR ROAD BRIDGE AT DADHI-PEDHI VILLAGE, BHATKULI, AMRAVATI","PEDHI RIVER NEAR ROAD BRIDGE",MAHARASHTRA,"20.999942","77.705722",red,"#f03"
"NOT Class C",2697,"PENGANGA RIVER NEAR WATER SUPPLY SCHEME OF UMARKHED MC BELKHED, UMARKHED, YAVATMAL",,MAHARASHTRA,"19.597589","77.691614",red,"#f03"
"NOT Class C",2698,"PENGANGA RIVER D/S OF ISAPUR DAM, ISAPUR, PUSAD, YAVATMAL","PENGANGA RIVER",MAHARASHTRA,"19.724881","77.446567",red,"#f03"
"NOT Class C",2699,"PENGANGA RIVER AT MEHKAR-BULDANA ROAD BRIDGE, MEHKAR, BULDANA","PENGANGA RIVER",MAHARASHTRA,"20.150364","76.560336",red,"#f03"
"NOT Class C",2700,"PURNA RIVER NEAR ACHALPUR-AMRAVATI ROAD BRIDGE, ASEGAON, CHANDUR BAZAR, AMRAVATI",,MAHARASHTRA,"21.129844","77.57423",red,"#f03"
"NOT Class C",2701,"SAVITRI RIVER JACKWELL AT UPSA KENDRE, NANGALWADI, MAHAD, RAIGAD","SAVITRI RIVER JACKWELL",MAHARASHTRA,"18.081171","73.424651",red,"#f03"
"NOT Class C",2702,"SAVITRI RIVER AT SHEDAV DOH, MAHAD,RAIGAD","SAVITRI RIVER",MAHARASHTRA,"18.082172","73.422625",red,"#f03"
"NOT Class C",2703,"SAVITRI RIVER AT DADLI BRIDGE, DADLI, MAHAD, RAIGADH","SAVITRI RIVER",MAHARASHTRA,"18.076912","73.420032",red,"#f03"
"NOT Class C",2704,"SAVITRI RIVER AT MUTHAVALI VILLAGE, MAHAD, RAIGADH","SAVITRI RIVER",MAHARASHTRA,"18.065276","73.397825",red,"#f03"
"NOT Class C",2706,"SURYA RIVER, U/S OF SURYA DAM, DHAMMI, VIKRAMGAD, THANE","SURYA RIVER,",MAHARASHTRA,"19.6974","72.850991",red,"#f03"
"NOT Class C",2707,"SURYA RIVER AT MIDC PUMPING STATION, GARVASHET, PALGHAR, THANE","SURYA RIVER",MAHARASHTRA,"19.789967","72.8353",red,"#f03"
"NOT Class C",2708,"SURYA RIVER AT INTAKE OF VASAI-VIRAR W/S SCHEME, MASVAN, PALGHAR, THANE","SURYA RIVER",MAHARASHTRA,"19.697697","72.851039",red,"#f03"
"NOT Class C",2709,"TANSA RIVER NEAR ROAD BRIDGE, VILLAGE DAKEWALI, WADA, THANE",,MAHARASHTRA,"19.484789","73.082394",red,"#f03"
"NOT Class C",2710,"TITUR RIVER, D/S OF CHALISGAON, JALGOAN.","TITUR RIVER,",MAHARASHTRA,"20.470053","75.025947",red,"#f03"
"NOT Class C",2711,"URMODI RIVER AT NAGTHANE, SATARA.","URMODI RIVER",MAHARASHTRA,"17.570306","74.050736",red,"#f03"
"NOT Class C",2712,"VAITARNA RIVER NEAR ROAD BRIDGE, GANDHARE VILLAGE, WADA, THANE.",,MAHARASHTRA,"19.633525","73.129592",red,"#f03"
"NOT Class C",2713,"VASHISHTI RIVER AT D/S OF THREE M PAPER MILLS NEAR CHIPLUN WATER INTAKE JACKWELL, KHERDI, RATNAGIRI","VASHISHTI RIVER",MAHARASHTRA,"17.52435","73.544556",red,"#f03"
"NOT Class C",2714,"VASHISHTI RIVER AT U/S OF POPHALI NEAR KONPHANSAWANE BRIDGE, CHIPLUN, RATNAGIRI","VASHISHTI RIVER",MAHARASHTRA,"17.532364","73.516651",red,"#f03"
"NOT Class C",2715,"VEL RIVER AT SHIKRAPUR, SHIRUR, PUNE","VEL RIVER",MAHARASHTRA,"18.692778","74.13348",red,"#f03"
"NOT Class C",2716,"VENNA RIVER AT MAHABALESHWAR, SATARA","VENNA RIVER",MAHARASHTRA,"17.933739","73.665091",red,"#f03"
"NOT Class C",2717,"VENNA RIVER AT MAHULI, SATARA.","VENNA RIVER",MAHARASHTRA,"17.692894","74.050883",red,"#f03"
"Class C",2718,"WAGHUR RIVER, AT- SAKEGAON BEFORE, CONFLUENCE WITH TAPI RIVER, JALGAON.",,MAHARASHTRA,"21.041903","75.733072",blue,"#00f"
"NOT Class C",2719,"WARDHA RIVER AT D/S OF ERAI RIVER, HADASTI, CHANDRAPUR.","WARDHA RIVER",MAHARASHTRA,"19.962632","79.277747",red,"#f03"
"NOT Class C",2720,"WARDHA RIVER AT U/S OF ERAI RIVER, HADASTI, CHANDRAPUR.","WARDHA RIVER",MAHARASHTRA,"19.962783","79.277286",red,"#f03"
"NOT Class C",2721,"WARDHA RIVER AT U/S OF ACC GHUGGUS, CHANDRAPUR.","WARDHA RIVER",MAHARASHTRA,"19.956027","79.099547",red,"#f03"
"NOT Class C",2722,"WENA RIVER AT U/S OF MOHATA MILLS, NEAR RAILWAY BRIDGE, HINGANGHAT","WENA RIVER",MAHARASHTRA,"20.555303","78.816456",red,"#f03"
"NOT Class C",2723,"WENA RIVER AT D/S OF MOHATA MILLS, NR RD BRG ON HINGANGHAT-WADNER ROAD","WENA RIVER",MAHARASHTRA,"20.544289","78.811978",red,"#f03"
"NOT Class C",2724,"SUSWA RIVER AT MOTHRAWALA, DEHRADUN","SUSWA RIVER",UTTARAKHAND,"30.25","78.016667",red,"#f03"
"NOT Class C",2727,"UPPER GANGA RIVER D/S ROORKEE","UPPER GANGA RIVER",UTTARAKHAND,"29.851669","77.879742",red,"#f03"
"NOT Class C",2728,"GOLA RIVER AT HALDWANI","GOLA RIVER",UTTARAKHAND,"29.209064","79.537174",red,"#f03"
"NOT Class C",2731,"KOSI RIVER AT KASHIPUR BAJPUR ROAD BRIDGE","KOSI RIVER",UTTARAKHAND,"29.158694","79.03956",red,"#f03"
"NOT Class C",2732,"DHELA RIVER U/S AT KASHIPUR MORADABAD ROAD BRIDGE","DHELA RIVER U/S",UTTARAKHAND,"29.111195","78.908723",red,"#f03"
"NOT Class C",2733,"DHELA RIVER D/S AT THAKURDWARA ALIGANJ ROAD","DHELA RIVER D/S",UTTARAKHAND,"29.15049","78.893386",red,"#f03"
"NOT Class C",2734,"BHALLA RIVER U/S KASHIPUR","BHALLA RIVER",UTTARAKHAND,"29.206769","78.986242",red,"#f03"
"NOT Class C",2735,"BHALLA RIVER AT LOHIA BRIDGE D/S KASHIPUR","BHALLA RIVER",UTTARAKHAND,"29.146732","78.982975",red,"#f03"
"NOT Class C",2742,"TAWI AT SHETALI LIFTING POINT NAGROTA(5KM U/S TAWI BRIDGE),J&K",TAWI,"JAMMU & KASHMIR","32.804021","74.923034",red,"#f03"
"NOT Class C",2743,"TAWI AT BAGH-E-BAHU LIFTING POINT(1 KM U/S TAWI BRIDGE),J&K",TAWI,"JAMMU & KASHMIR","32.724181","74.875506",red,"#f03"
"NOT Class C",2746,"TAWI AT BELICHARANA(4KM D/S TAWI BRIDGE),J&K",TAWI,"JAMMU & KASHMIR","32.698334","74.830353",red,"#f03"
"NOT Class C",2747,"TAWI AT SURAJPUR CHATHA(10 KM D/S TAWI BRIDGE)BELOW BRIDGE NEAR CHATHA MSW DUMPING SITE,J&K",TAWI,"JAMMU & KASHMIR","32.786667","74.978889",red,"#f03"
"NOT Class C",2748,"CHENAB AT L.H.S.(BELOW BRIDGE CHENAB),J&K",CHENAB,"JAMMU & KASHMIR","33.151325","74.882478",red,"#f03"
"NOT Class C",2749,"CHENAB AT BLIND CURVE SHAMSHAN GHAT (1.5 KM U/S FROM SPOT),J&K",CHENAB,"JAMMU & KASHMIR","32.956944","74.961389",red,"#f03"
"NOT Class C",2750,"CHENAB AT CHADRA GAON VIEW POINT(4 KM U/S FROM SPOT),J&K",CHENAB,"JAMMU & KASHMIR","33.013333","74.774167",red,"#f03"
"NOT Class C",2751,"CHENAB AT JAL PATAN MANDIR AFTER MEETING WITH MAIN DRAIN OF AKHNOOR CITY(1.5 KMD/S FROM SPOT,J&K",CHENAB,"JAMMU & KASHMIR","32.895309","74.740171",red,"#f03"
"NOT Class C",2752,"BASANTER AT SAMBA (BELOW NH-1A BRIDGE), BASANTAR US (R.H.S),J&K",BASANTER,"JAMMU & KASHMIR","32.635833","75.170278",red,"#f03"
"NOT Class C",2753,"BASANTER AT SAMBA (AT CHAK MANGA GUJJAR BASANTAR) D/S(R.H.S.), J&K",BASANTER,"JAMMU & KASHMIR","32.653333","75.096389",red,"#f03"
"NOT Class C",2754,"DEVAK UDHAMPUR(NEAR SHIV MANDIRD/S)L.H.S.,J&K",,"JAMMU & KASHMIR","32.920611","75.125547",red,"#f03"
"NOT Class C",2755,"BANGANGA (BATHING GHAT),KATRA,J&K",,"JAMMU & KASHMIR","32.983326","74.90052",red,"#f03"
"NOT Class C",2756,"BANGANGA (IN FRONT OF PONY SHED NEAR REASI BRIDGE)KATRA,J&K",,"JAMMU & KASHMIR","33.072819","74.834372",red,"#f03"
"NOT Class C",2757,"DEVAK AT UTTERBEHNI,J&K",DEVAK,"JAMMU & KASHMIR","32.571694","75.111288",red,"#f03"
"NOT Class C",2758,"UJH AT DAM SITE(L.H.S.), KATHUA,J&K",UJH,"JAMMU & KASHMIR","32.667971","75.486415",red,"#f03"
"Class C",2763,"ASANGI NALLA AT ASANGI VILLAGE, KARNATAKA","ASANGI NALLA",KARNATAKA,"16.503131","75.116569",blue,"#00f"
"NOT Class C",2764,"MALPRABHA AT BADAMI BRIDGE, KARNATAKA",MALPRABHA,KARNATAKA,"15.875672","75.722272",red,"#f03"
"Class C",2765,"BHADRA AT U/S OF MPM, KARNATAKA",BHADRA,KARNATAKA,"13.812647","75.716319",blue,"#00f"
"NOT Class C",2766,"TUNGABHADRA AT NEW BRIDGE, KARNATAKA",TUNGABHADRA,KARNATAKA,"14.514278","75.785697",red,"#f03"
"NOT Class C",2767,"TUNGABHADRA AT U/S OF HPF, KARNATAKA",TUNGABHADRA,KARNATAKA,"14.514278","75.785697",red,"#f03"
"NOT Class C",2768,"TUNGABHADRA AT D/S OF HPF, KARNATAKA",TUNGABHADRA,KARNATAKA,"14.514278","75.785697",red,"#f03"
"NOT Class C",2769,"TUNGABHADRA AT JACKWELL POINT, KARNATAKA",TUNGABHADRA,KARNATAKA,"14.5265","75.796072",red,"#f03"
"NOT Class C",2770,"TUNGABHADRA AT HARIHAR WATER SUPPLY INTAKE, KARNATAKA",TUNGABHADRA,KARNATAKA,"14.515836","75.797939",red,"#f03"
"Class C",2771,"BHADRA AT U/S OF KIOCL, KARNATAKA",BHADRA,KARNATAKA,"13.212753","75.234217",blue,"#00f"
"NOT Class C",2772,"LAKSHMANTIRTHA AT D/S OF KATTEMALAVADI, KARNATAKA",LAKSHMANTIRTHA,KARNATAKA,"12.344614","76.286175",red,"#f03"
"NOT Class C",2773,"CAUVERY AT BANNUR BRIDGE, KARNATAKA",CAUVERY,KARNATAKA,"12.321469","76.841472",red,"#f03"
"NOT Class C",2774,"CAUVERY AT RANGANATHITTU, KARNATAKA",CAUVERY,KARNATAKA,"12.425022","76.653544",red,"#f03"
"NOT Class C",2775,"KABINI AT BATHING GHAT, NANJANAGUD, KARNATAKA",KABINI,KARNATAKA,"12.128775","76.683736",red,"#f03"
"NOT Class C",2776,"TUNGABHADRA AT D/S OF GANGAWATHI, KARNATAKA",TUNGABHADRA,KARNATAKA,"15.41225","76.58625",red,"#f03"
"NOT Class C",2777,"KAGINA AT SHAHABAD BRIDGE, KARNATAKA",KAGINA,KARNATAKA,"17.139369","76.966739",red,"#f03"
"NOT Class C",2778,"ARKAVATHI AT T.G. HALLI RESERVOIR, , KARNATAKA",ARKAVATHI,KARNATAKA,"12.967039","77.337053",red,"#f03"
"NOT Class C",2780,"KALI AT U/S OF WCPM, DANDELI, KARNATAKA",KALI,KARNATAKA,"15.253247","74.601225",red,"#f03"
"NOT Class C",2781,"KRISHNA AT D/S OF ALAMATTI DAM, KARNATAKA",KRISHNA,KARNATAKA,"16.325069","75.899925",red,"#f03"
"NOT Class C",28,"BHIMA AT TAKLI, MAHARASHTRA",BHIMA,MAHARASHTRA,"17.703734","75.544604",red,"#f03"
"NOT Class C",29,"TUNGHABHADRA AT ULLANUR, KARNATAKA",TUNGHABHADRA,KARNATAKA,"15.494844","76.692417",red,"#f03"
"NOT Class C",2947,"RIVER JAWAI AT JAWAI DAM, SIROHI, RAJASTHAN","RIVER JAWAI",RAJASTHAN,"25.092685","73.145287",red,"#f03"
"Class C",2948,"RIVER BANDI AT HEMAWAS DAM, PALI, RAJASTHAN","RIVER BANDI",RAJASTHAN,"25.720558","73.338047",blue,"#00f"
"Class C",2949,"RIVER LUNI AT RANAKPUR DAM, RANAKPUR, PALI, RAJASTHAN","RIVER LUNI",RAJASTHAN,"25.132002","73.477008",blue,"#00f"
"Class C",30,"PENNAR AT SIDDVATA, NELLORE, A.P.",PENNAR,"ANDHRA PRADESH","14.464393","78.964627",blue,"#00f"
"NOT Class C",3012,"CAUVERY AT KOMARAPALAYAM, NAMAKAL, TAMILNADU",CAUVERY,TAMILNADU,"11.423503","77.685261",red,"#f03"
"NOT Class C",3013,"CAUVERY AT URRACHIKOTTAI, ERODE, TAMILNADU",CAUVERY,TAMILNADU,"11.354178","77.750436",red,"#f03"
"NOT Class C",3014,"CAUVERY AT VAIRAPALAYAM, NAMAKAL, TAMILNADU",CAUVERY,TAMILNADU,"11.361583","77.742411",red,"#f03"
"NOT Class C",3015,"CAUVERY AT PUGALUR, KARUR, TAMILNADU",CAUVERY,TAMILNADU,"10.974467","78.180075",red,"#f03"
"NOT Class C",3016,"CAUVERY AT PETTAIVAITHALAI, TRICHY, TAMILNADU",CAUVERY,TAMILNADU,"10.906389","78.489697",red,"#f03"
"NOT Class C",3017,"CAUVERY AT KUMBAKONAM, THANJAVUR, TAMILNADU",CAUVERY,TAMILNADU,"10.968137","79.378248",red,"#f03"
"NOT Class C",3019,"BHAVANI AT D/S OF BHAVANISAGAR, SATHYAMANGALAM, ERODE, TAMILNADU",BHAVANI,TAMILNADU,"11.503881","77.247036",red,"#f03"
"NOT Class C",3022,"THIRUMANIMUTHAR AT SALEM, D/S OF SAGO & TEXTILE DYING INDUSTRIES, TAMILNADU",THIRUMANIMUTHAR,TAMILNADU,"11.645876","78.120341",red,"#f03"
"NOT Class C",3023,"VASISTA AT SALEM, D/S OF SAGO INDUSRIES EFFLUENT, TAMILNADU",VASISTA,TAMILNADU,"11.647853","78.138125",red,"#f03"
"NOT Class C",3024,"SARABANGA AT SALEM, D/S OF TEXTILE DYEING INDUSTRIES EFFLUENT, TAMILNADU",SARABANGA,TAMILNADU,"11.649094","78.148011",red,"#f03"
"NOT Class C",3025,"TAMBIRAPARANI AT ERAL, THOTHUKUDI, TAMILNADU",TAMBIRAPARANI,TAMILNADU,"8.620606","78.022839",red,"#f03"
"NOT Class C",3026,"TAMBIRAPARANI AT KALLIDAI KURICHI, TIRUNELVELI, TAMILNADU",TAMBIRAPARANI,TAMILNADU,"8.69375","77.462681",red,"#f03"
"NOT Class C",3027,"TAMBIRAPARANI AT SRIVAIKUNTAM, D/S OF SK ANAICUT, TIRUNELVELI, TAMILNADU",TAMBIRAPARANI,TAMILNADU,"8.627358","77.909",red,"#f03"
"NOT Class C",3028,"TAMBIRAPARANI AT VELLAKOIL, TIRUNELVELI, TAMILNADU",TAMBIRAPARANI,TAMILNADU,"8.718019","77.703531",red,"#f03"
"NOT Class C",3029,"TAMBIRAPARANI AT SIVALAPERI, CONFLUENCE POINT OF KUTTRALAM FALLS, D/S OF PALAYAMKOTTAI, TIRUNELVELI, TAMILNADU",TAMBIRAPARANI,TAMILNADU,"8.700031","77.690869",red,"#f03"
"NOT Class C",3079,"D/S OF RIVER KRISHNA A/C WITH TREATED SEWAGE DISCHARGING FROM 10MLD STP LOCATED AT RAMALINGESHWARNAGAR, VIJAYAWADA, KRISHNA, A.P.","D/S OF RIVER KRISHNA A/C WITH TREATED SEWAGE DISCHARGING FROM 10MLD STP LOCATED","ANDHRA PRADESH","16.398256","80.721106",red,"#f03"
"Class C",3080,"U/S OF KARAKAVAGU AT PALONCHA, KHAMMAM, A.P.","U/S OF KARAKAVAGU","ANDHRA PRADESH","17.647541","80.707462",blue,"#00f"
"Class C",3081,"D/S OF KARAKAVAGU AT PALONCHA, KHAMMAM, A.P.","D/S OF KARAKAVAGU","ANDHRA PRADESH","16.065597","78.829544",blue,"#00f"
"NOT Class C",3082,"RIVER MUSI RESERVOIR AT KASANIGUDA, NALGONDA, A.P.","RIVER MUSI RESERVOIR","ANDHRA PRADESH","17.247636","79.492042",red,"#f03"
"Class C",3083,"KRISHNA D/S OF SRISHAILAM, KURNOOL, A.P.",KRISHNA,"ANDHRA PRADESH","16.087917","78.890169",blue,"#00f"
"NOT Class C",31,"CAUVERY AT MUSIRI, TAMIL NADU",CAUVERY,TAMILNADU,"10.955345","78.443949",red,"#f03"
"NOT Class C",3113,"GANGA AT D/S BUXAR NEAR GANGA BRIDGE",GANGA,BIHAR,"25.588972","83.985861",red,"#f03"
"NOT Class C",3114,"GANGA RIVER NEAR DANAPUR (NEAR PIPAPUL)",,BIHAR,"25.588972","83.985861",red,"#f03"
"Class C",3116,"GANGA AT U/S MUNGER (NEAR INTAKE WELL ON GANGA)",GANGA,BIHAR,"25.368174","86.464302",blue,"#00f"
"Class C",3117,"GANGA AT U/S SULTANGANJ",GANGA,BIHAR,"25.252575","86.725558",blue,"#00f"
"Class C",3118,"GANGA AT U/S BHAGALPUR",GANGA,BIHAR,"25.271603","87.025665",blue,"#00f"
"Class C",3119,"PUNPUN RIVER NEAR PUNPUN RAIL BRIDGE",,BIHAR,"25.513517","85.292658",blue,"#00f"
"Class C",3120,"PUNPUN RIVER NEAR KINZER ROAD BRIDGE",,BIHAR,"25.217822","84.826131",blue,"#00f"
"Class C",3121,"SONE RIVER NEAR BANZARI",,BIHAR,"24.671905","84.010068",blue,"#00f"
"NOT Class C",3122,"GANGA AT MALSALAMI, PATNA",GANGA,BIHAR,"25.557806","85.275648",red,"#f03"
"Class C",3123,"GANGA RIVER AT BARAHIA","GANGA RIVER",BIHAR,"25.315313","86.029821",blue,"#00f"
"Class C",3124,"GANDAK RIVER U/S ROAD BRIDGE MUZAFFARPUR (NH)","GANDAK RIVER",BIHAR,"26.136076","85.381196",blue,"#00f"
"Class C",3125,"GANDAK RIVER GOPALGANJ - PIPRAKOTHI ROAD BRIDGE (DUMARIA GHAT)",,BIHAR,"26.360672","84.749947",blue,"#00f"
"Class C",3126,"U/S HARBORA RIVER",,BIHAR,"27.094829","84.143868",blue,"#00f"
"Class C",3127,"SONE RIVER AT BAHIYARA","SONE RIVER",BIHAR,"25.297742","84.678992",blue,"#00f"
"Class C",3128,"SONE RIVER AT NASIRIGANJ DAM","SONE RIVER",BIHAR,"25.045209","84.332819",blue,"#00f"
"NOT Class C",3129,"DAHA RIVER AT MEERGANJ","DAHA RIVER",BIHAR,"26.364956","84.360872",red,"#f03"
"Class C",3130,"RAM REKHA RIVER AT U/S HARINAGAR","RAM REKHA RIVER",BIHAR,"27.17026","84.322348",blue,"#00f"
"Class C",3131,"U/S MANUSMAR RIVER (RIGA)",,BIHAR,"26.658543","85.400266",blue,"#00f"
"Class C",3132,"BAGMATI RIVER AT MUZAFFARPUR - SITAMARHI ROAD BRIDGE","BAGMATI RIVER",BIHAR,"26.341991","85.481683",blue,"#00f"
"Class C",3133,"KAMALA RIVER AT JAYNAGAR","KAMALA RIVER",BIHAR,"26.596857","86.144676",blue,"#00f"
"NOT Class C",3134,"SIKRAHNA RIVER AT LAURIA - HARINAGAR ROAD BRIDGE","SIKRAHNA RIVER",BIHAR,"26.148036","85.373764",red,"#f03"
"Class C",3135,"BAGMATI RIVER AT DARBHANGA - SAMASTIPUR ROAD BRIDGE","BAGMATI RIVER",BIHAR,"26.038984","85.891341",blue,"#00f"
"NOT Class C",3136,"SIRSIA RIVER D/S RAXAUL (KOERIA TOLA)","SIRSIA RIVER",BIHAR,"26.988061","84.855244",red,"#f03"
"Class C",3137,"KOSHI RIVER AT BEERPUR","KOSHI RIVER",BIHAR,"25.386081","87.092419",blue,"#00f"
"Class C",3165,"HASDEO RIVER 100 METER D/S A/C OF DENGUR NALLAH NERA C.S.E.B. EAST GUEST HOUSE, KORBA","HASDEO RIVER 100 METER",CHHATTISGARH,"22.339305","82.692841",blue,"#00f"
"Class C",3167,"SHEONATH AT RAJNANDGAON, D/S AT MOHAD, RAJNANDGAON",SHEONATH,CHHATTISGARH,"21.047808","81.065781",blue,"#00f"
"Class C",3168,"DOWNSTREAM OF HASDEO RIVER NEAR URGA VILLAGE KORBA",,CHHATTISGARH,"22.282751","82.700933",blue,"#00f"
"NOT Class C",3181,"RIVER ZUARI AT BORIM BRIDGE","RIVER ZUARI",GOA,"15.350089","74.00325",red,"#f03"
"NOT Class C",3182,"RIVER ZUARI AT MARCAIM JETTY","RIVER ZUARI",GOA,"15.407325","73.944117",red,"#f03"
"NOT Class C",3183,"RIVER SAL AT KHAREBAND, MARGAO","RIVER SAL",GOA,"15.275075","73.948836",red,"#f03"
"NOT Class C",3184,"RIVER SAL AT ORLIM BRIDGE, ORLIM","RIVER SAL",GOA,"15.220008","73.957919",red,"#f03"
"NOT Class C",3185,"RIVER MANDOVI AT AMONA BRIDGE","RIVER MANDOVI",GOA,"15.527369","73.968625",red,"#f03"
"NOT Class C",3186,"RIVER MANDOVI AT IFFI JETTY","RIVER MANDOVI",GOA,"15.503417","73.845425",red,"#f03"
"NOT Class C",3187,"RIVER MANDOVI NEAR HOTEL MARRIOT",,GOA,"15.487294","73.809108",red,"#f03"
"NOT Class C",3188,"RIVER TIRACOL AT TIRACOL","RIVER TIRACOL",GOA,"15.721736","73.695817",red,"#f03"
"NOT Class C",3189,"RIVER CHAPORA AT SIOLIM","RIVER CHAPORA",GOA,"15.631633","73.760186",red,"#f03"
"NOT Class C",3190,"RIVER SINQUERIM (CANDOLIM SIDE NEAR BRIDGE)",,GOA,"15.510461","73.779575",red,"#f03"
"NOT Class C",3191,"RIVER SINQUERIM NEAR NERUL TEMPLE",,GOA,"15.499086","73.779919",red,"#f03"
"NOT Class C",3203,"AMRAVATI AT VILLAGE DADHAL , TA ANKLESHWAR, BHARUCH",AMRAVATI,GUJARAT,"21.635384","73.064972",red,"#f03"
"NOT Class C",3204,"DOWNSTREAM OF RIVER VISHWAMITRI AT KHALIPUR VILLAGE, BEFORE MEETING JAMBUVA RIVER","DOWNSTREAM OF RIVER VISHWAMITRI",GUJARAT,"22.209342","73.160406",red,"#f03"
"NOT Class C",3205,"UPSTREAM OF RIVER VISHWAMITRI AT ASOD BRIDGE AT N.H. 8 , NEAR GLDEN CHOKDI, ASOD VEMALI ROAD","UPSTREAM OF RIVER VISHWAMITRI",GUJARAT,"22.255227","73.165754",red,"#f03"
